$GPVTG,192.06,T,,M,1.192,N,2.208,K,A*2C
$GPGGA,154748.00,4747.26655,N,00320.14636,W,1,03,15.49,0.9,M,49.6,M,,*66
$GPGSA,A,2,29,25,31,,,,,,,,,,15.52,15.49,1.00*18
$GPGSA,A,2,,,,,,,,,,,,,15.52,15.49,1.00*16
$GPGSV,2,1,05,08,43,289,25,10,00,029,,25,55,084,27,29,80,084,30*7C
$GPGSV,2,2,05,31,62,289,28*43
$GLGSV,1,1,00*65
$GPGLL,4747.26655,N,00320.14636,W,154748.00,A,A*6B
$GPZDA,154748.00,20,05,2015,00,00*72
$GPRMC,154749.00,A,4747.26622,N,00320.14626,W,1.177,191.85,200515,,,A*6B
$GPVTG,191.85,T,,M,1.177,N,2.179,K,A*2A
$GPGGA,154749.00,4747.26622,N,00320.14626,W,1,03,15.53,1.8,M,49.6,M,,*6D
$GPGSA,A,2,29,25,31,,,,,,,,,,15.56,15.53,1.00*17
$GPGSA,A,2,,,,,,,,,,,,,15.56,15.53,1.00*19
$GPGSV,2,1,05,08,43,289,24,10,00,029,,25,55,084,27,29,80,084,30*7D
$GPGSV,2,2,05,31,62,289,28*43
$GLGSV,1,1,00*65
$GPGLL,4747.26622,N,00320.14626,W,154749.00,A,A*6B
$GPZDA,154749.00,20,05,2015,00,00*73
$GPRMC,154750.00,A,4747.26575,N,00320.14621,W,1.168,191.65,200515,,,A*65
$GPVTG,191.65,T,,M,1.168,N,2.163,K,A*21
$GPGGA,154750.00,4747.26575,N,00320.14621,W,1,03,15.57,2.1,M,49.6,M,,*6D
$GPGSA,A,2,29,25,31,,,,,,,,,,15.60,15.57,1.00*16
$GPGSA,A,2,,,,,,,,,,,,,15.60,15.57,1.00*18
$GPGSV,2,1,06,02,,,24,08,43,289,25,10,00,029,,25,55,084,27*47
$GPGSV,2,2,06,29,80,084,30,31,62,289,27*73
$GLGSV,1,1,00*65
$GPGLL,4747.26575,N,00320.14621,W,154750.00,A,A*65
$GPZDA,154750.00,20,05,2015,00,00*7B
$GPRMC,154751.00,A,4747.26517,N,00320.14619,W,1.166,191.45,200515,,,A*67
$GPVTG,191.45,T,,M,1.166,N,2.160,K,A*2E
$GPGGA,154751.00,4747.26517,N,00320.14619,W,1,03,15.61,3.5,M,49.6,M,,*63
$GPGSA,A,2,29,25,31,,,,,,,,,,15.64,15.61,1.00*17
$GPGSA,A,2,,,,,,,,,,,,,15.64,15.61,1.00*19
$GPGSV,2,1,06,02,,,21,08,43,289,24,10,00,029,,25,55,084,27*43
$GPGSV,2,2,06,29,80,084,30,31,62,289,27*73
$GLGSV,1,1,00*65
$GPGLL,4747.26517,N,00320.14619,W,154751.00,A,A*6B
$GPZDA,154751.00,20,05,2015,00,00*7A
$GPRMC,154752.00,A,4747.26445,N,00320.14628,W,1.173,191.29,200515,,,A*6E
$GPVTG,191.29,T,,M,1.173,N,2.173,K,A*22
$GPGGA,154752.00,4747.26445,N,00320.14628,W,1,03,15.65,2.0,M,49.6,M,,*64
$GPGSA,A,2,29,25,31,,,,,,,,,,15.68,15.65,1.00*1F
$GPGSA,A,2,,,,,,,,,,,,,15.68,15.65,1.00*11
$GPGSV,2,1,06,02,,,20,08,43,289,25,10,00,029,,25,55,084,27*43
$GPGSV,2,2,06,29,80,084,29,31,62,289,27*7B
$GLGSV,1,1,00*65
$GPGLL,4747.26445,N,00320.14628,W,154752.00,A,A*6C
$GPZDA,154752.00,20,05,2015,00,00*79
$GPRMC,154753.00,A,4747.26410,N,00320.14629,W,1.168,191.16,200515,,,A*68
$GPVTG,191.16,T,,M,1.168,N,2.162,K,A*24
$GPGGA,154753.00,4747.26410,N,00320.14629,W,1,03,15.69,2.1,M,49.6,M,,*69
$GPGSA,A,2,29,25,31,,,,,,,,,,15.72,15.69,1.00*18
$GPGSA,A,2,,,,,,,,,,,,,15.72,15.69,1.00*16
$GPGSV,2,1,06,02,,,18,08,43,289,25,10,00,029,,25,55,084,27*48
$GPGSV,2,2,06,29,80,084,29,31,62,289,27*7B
$GLGSV,1,1,00*65
$GPGLL,4747.26410,N,00320.14629,W,154753.00,A,A*6C
$GPZDA,154753.00,20,05,2015,00,00*78
$GPRMC,154754.00,A,4747.26384,N,00320.14629,W,1.157,191.06,200515,,,A*68
$GPVTG,191.06,T,,M,1.157,N,2.143,K,A*2A
$GPGGA,154754.00,4747.26384,N,00320.14629,W,1,03,15.73,1.6,M,49.6,M,,*6B
$GPGSA,A,2,29,25,31,,,,,,,,,,15.76,15.73,1.00*17
$GPGSA,A,2,,,,,,,,,,,,,15.76,15.73,1.00*19
$GPGSV,2,1,06,02,,,17,08,43,289,25,10,00,029,,25,55,084,27*47
$GPGSV,2,2,06,29,80,084,29,31,62,289,27*7B
$GLGSV,1,1,00*65
$GPGLL,4747.26384,N,00320.14629,W,154754.00,A,A*61
$GPZDA,154754.00,20,05,2015,00,00*7F
$GPRMC,154755.00,A,4747.26382,N,00320.14626,W,1.142,190.98,200515,,,A*62
$GPVTG,190.98,T,,M,1.142,N,2.115,K,A*2B
$GPGGA,154755.00,4747.26382,N,00320.14626,W,1,03,15.77,0.9,M,49.6,M,,*69
$GPGSA,A,2,29,25,31,,,,,,,,,,15.80,15.77,1.00*1A
$GPGSA,A,2,,,,,,,,,,,,,15.80,15.77,1.00*14
$GPGSV,2,1,06,02,,,18,08,43,289,25,10,00,029,,25,55,084,27*48
$GPGSV,2,2,06,29,80,084,30,31,62,289,27*73
$GLGSV,1,1,00*65
$GPGLL,4747.26382,N,00320.14626,W,154755.00,A,A*69
$GPZDA,154755.00,20,05,2015,00,00*7E
$GPRMC,154756.00,A,4747.26396,N,00320.14617,W,1.121,190.91,200515,,,A*6A
$GPVTG,190.91,T,,M,1.121,N,2.076,K,A*23
$GPGGA,154756.00,4747.26396,N,00320.14617,W,1,03,15.81,1.2,M,49.6,M,,*6E
$GPGSA,A,2,29,25,31,,,,,,,,,,15.84,15.81,1.00*17
$GPGSA,A,2,,,,,,,,,,,,,15.84,15.81,1.00*19
$GPGSV,2,1,06,02,,,18,08,43,289,24,10,00,029,,25,55,084,27*49
$GPGSV,2,2,06,29,80,084,29,31,62,289,27*7B
$GLGSV,1,1,00*65
$GPGLL,4747.26396,N,00320.14617,W,154756.00,A,A*6D
$GPZDA,154756.00,20,05,2015,00,00*7D
$GPRMC,154757.00,A,4747.26408,N,00320.14607,W,1.101,190.83,200515,,,A*6B
$GPVTG,190.83,T,,M,1.101,N,2.039,K,A*29
$GPGGA,154757.00,4747.26408,N,00320.14607,W,1,03,15.85,0.7,M,49.6,M,,*6E
$GPGSA,A,2,29,25,31,,,,,,,,,,15.88,15.85,1.00*1F
$GPGSA,A,2,,,,,,,,,,,,,15.88,15.85,1.00*11
$GPGSV,2,1,06,02,,,17,08,43,289,24,10,00,029,,25,55,084,27*46
$GPGSV,2,2,06,29,80,084,29,31,62,289,27*7B
$GLGSV,1,1,00*65
$GPGLL,4747.26408,N,00320.14607,W,154757.00,A,A*6D
$GPZDA,154757.00,20,05,2015,00,00*7C
