$GPGGA,073424.251,5128.5112,N,00732.5411,E,1,05,3.2,214.7,M,47.5,M,0.0,0000*7E
$GPGSA,A,3,21,24,06,03,16,,,,,,,,5.7,3.2,4.6*34
$GPRMC,073424.251,A,5128.5112,N,00732.5411,E,0.14,67.92,140929,,*35
$GPVTG,67.92,T,,M,0.14,N,0.3,K*5C
$GPZDA,073425,14,09,2029,00,00*4A
$GPGGA,073425.251,5128.5110,N,00732.5407,E,1,05,3.2,214.7,M,47.5,M,0.0,0000*7A
$GPGSA,A,3,21,24,06,03,16,,,,,,,,5.7,3.2,4.6*34
$GPGSV,3,1,10,16,67,203,38,21,61,072,40,06,55,283,43,03,42,284,42*76
$GPGSV,3,2,10,18,38,118,33,24,24,055,40,22,20,156,00,19,18,277,31*76
$GPGSV,3,3,10,07,13,326,00,29,06,096,00*78
$GPRMC,073425.251,A,5128.5110,N,00732.5407,E,0.18,116.24,140929,,*07
$GPVTG,116.24,T,,M,0.18,N,0.3,K*6A
$GPMSS,0,0,0.000000,200,*5A
$GPZDA,073426,14,09,2029,00,00*49
$GPGGA,073426.251,5128.5108,N,00732.5404,E,1,05,3.2,214.8,M,47.5,M,0.0,0000*7C
$GPGSA,A,3,21,24,06,03,16,,,,,,,,5.7,3.2,4.6*34
$GPRMC,073426.251,A,5128.5108,N,00732.5404,E,0.12,106.30,140929,,*00
$GPVTG,106.30,T,,M,0.12,N,0.2,K*65
$GPZDA,073427,14,09,2029,00,00*48
$GPGGA,073427.251,5128.5106,N,00732.5400,E,1,05,3.2,214.8,M,47.5,M,0.0,0000*77
$GPGSA,A,3,21,24,06,03,16,,,,,,,,5.7,3.2,4.6*34
$GPRMC,073427.251,A,5128.5106,N,00732.5400,E,0.11,110.59,140929,,*00
$GPVTG,110.59,T,,M,0.11,N,0.2,K*6E
$GPZDA,073428,14,09,2029,00,00*47
$GPGGA,073428.251,5128.5104,N,00732.5396,E,1,05,3.2,214.9,M,47.5,M,0.0,0000*73
$GPGSA,A,3,21,24,06,03,16,,,,,,,,5.7,3.2,4.6*34
$GPRMC,073428.251,A,5128.5104,N,00732.5396,E,0.12,122.39,140929,,*01
$GPVTG,122.39,T,,M,0.12,N,0.2,K*6A
$GPZDA,073429,14,09,2029,00,00*46
$GPGGA,073429.251,5128.5102,N,00732.5393,E,1,05,3.2,215.0,M,47.5,M,0.0,0000*79
$GPGSA,A,3,21,24,06,03,16,,,,,,,,5.7,3.2,4.6*34
$GPRMC,073429.251,A,5128.5102,N,00732.5393,E,0.15,130.02,140929,,*0F
$GPVTG,130.02,T,,M,0.15,N,0.3,K*67
$GPZDA,073430,14,09,2029,00,00*4E
$GPGGA,073430.251,5128.5101,N,00732.5390,E,1,05,3.2,215.1,M,47.5,M,0.0,0000*70
$GPGSA,A,3,21,24,06,03,16,,,,,,,,5.7,3.2,4.6*34
$GPGSV,3,1,10,16,67,203,39,21,61,072,39,06,55,283,43,03,42,284,42*79
$GPGSV,3,2,10,18,38,118,35,24,24,055,39,22,20,156,00,19,18,277,30*7F
$GPGSV,3,3,10,07,13,326,00,29,06,096,00*78
$GPRMC,073430.251,A,5128.5101,N,00732.5390,E,0.13,132.47,140929,,*02
$GPVTG,132.47,T,,M,0.13,N,0.2,K*63
$GPMSS,0,0,0.000000,200,*5A
$GPZDA,073431,14,09,2029,00,00*4F
$GPGGA,073431.251,5128.5100,N,00732.5387,E,1,05,3.2,215.1,M,47.5,M,0.0,0000*76
$GPGSA,A,3,21,24,06,03,16,,,,,,,,5.7,3.2,4.6*34
$GPRMC,073431.251,A,5128.5100,N,00732.5387,E,0.13,137.06,140929,,*04
$GPVTG,137.06,T,,M,0.13,N,0.2,K*63
$GPZDA,073432,14,09,2029,00,00*4C
$GPGGA,073432.251,5128.5098,N,00732.5385,E,1,05,3.2,215.0,M,47.5,M,0.0,0000*76
$GPGSA,A,3,21,24,06,03,16,,,,,,,,5.7,3.2,4.6*34
$GPRMC,073432.251,A,5128.5098,N,00732.5385,E,0.11,139.44,140929,,*0F
$GPVTG,139.44,T,,M,0.11,N,0.2,K*69
$GPZDA,073433,14,09,2029,00,00*4D
$GPGGA,073433.251,5128.5097,N,00732.5382,E,1,05,3.2,214.7,M,47.5,M,0.0,0000*79
$GPGSA,A,3,21,24,06,03,16,,,,,,,,5.6,3.2,4.6*35
$GPRMC,073433.251,A,5128.5097,N,00732.5382,E,0.16,140.69,140929,,*00
$GPVTG,140.69,T,,M,0.16,N,0.3,K*6E
$GPZDA,073434,14,09,2029,00,00*4A
$GPGGA,073434.251,5128.5096,N,00732.5380,E,1,05,3.2,214.3,M,47.5,M,0.0,0000*79
$GPGSA,A,3,21,24,06,03,16,,,,,,,,5.6,3.2,4.6*35
$GPRMC,073434.251,A,5128.5096,N,00732.5380,E,0.15,136.16,140929,,*0E
$GPVTG,136.16,T,,M,0.15,N,0.3,K*64
$GPZDA,073435,14,09,2029,00,00*4B
$GPGGA,073435.251,5128.5094,N,00732.5378,E,1,05,3.2,213.8,M,47.5,M,0.0,0000*71
$GPGSA,A,3,21,24,06,03,16,,,,,,,,5.6,3.2,4.6*35
$GPGSV,3,1,10,16,67,203,39,21,61,072,40,06,55,283,44,03,42,284,41*73
$GPGSV,3,2,10,18,38,118,36,24,24,055,40,22,20,156,00,19,18,277,29*7A
$GPGSV,3,3,10,07,13,326,24,29,06,096,00*7E
$GPRMC,073435.251,A,5128.5094,N,00732.5378,E,0.16,146.35,140929,,*0F
$GPVTG,146.35,T,,M,0.16,N,0.3,K*61
$GPMSS,0,0,0.000000,200,*5A
$GPZDA,073436,14,09,2029,00,00*48
$GPGGA,073436.251,5128.5091,N,00732.5374,E,1,06,2.4,212.7,M,47.5,M,0.0,0000*71
$GPGSA,A,3,21,24,06,03,19,16,,,,,,,3.5,2.4,2.4*3B
$GPRMC,073436.251,A,5128.5091,N,00732.5374,E,0.18,147.97,140929,,*02
$GPVTG,147.97,T,,M,0.18,N,0.3,K*66
$GPZDA,073437,14,09,2029,00,00*49
$GPGGA,073437.251,5128.5089,N,00732.5372,E,1,06,2.4,211.8,M,47.5,M,0.0,0000*73
$GPGSA,A,3,21,24,06,03,19,16,,,,,,,3.5,2.4,2.4*3B
$GPRMC,073437.251,A,5128.5089,N,00732.5372,E,0.22,150.09,140929,,*04
$GPVTG,150.09,T,,M,0.22,N,0.4,K*69
$GPZDA,073438,14,09,2029,00,00*46
$GPGGA,073438.251,5128.5087,N,00732.5370,E,1,06,2.4,211.1,M,47.5,M,0.0,0000*79
$GPGSA,A,3,21,24,06,03,19,16,,,,,,,3.5,2.4,2.4*3B
$GPRMC,073438.251,A,5128.5087,N,00732.5370,E,0.20,147.49,140929,,*07
$GPVTG,147.49,T,,M,0.20,N,0.4,K*69
$GPZDA,073439,14,09,2029,00,00*47
$GPGGA,073439.250,5128.5086,N,00732.5369,E,1,06,2.4,210.2,M,47.5,M,0.0,0000*72
$GPGSA,A,3,21,24,06,03,19,16,,,,,,,3.5,2.4,2.4*3B
$GPRMC,073439.250,A,5128.5086,N,00732.5369,E,0.21,147.57,140929,,*00
$GPVTG,147.57,T,,M,0.21,N,0.4,K*67
$GPZDA,073440,14,09,2029,00,00*49
$GPGGA,073440.250,5128.5085,N,00732.5368,E,1,05,3.2,209.5,M,47.5,M,0.0,0000*75
$GPGSA,A,3,21,24,06,03,16,,,,,,,,5.6,3.2,4.6*35
$GPGSV,3,1,10,16,67,203,41,21,61,072,42,06,55,283,41,03,42,284,40*7A
$GPGSV,3,2,10,18,38,118,39,24,24,055,39,22,20,156,00,19,16,277,27*7B
$GPGSV,3,3,10,07,13,326,30,29,06,096,00*7B
$GPRMC,073440.250,A,5128.5085,N,00732.5368,E,0.26,158.49,140929,,*0A
$GPVTG,158.49,T,,M,0.26,N,0.5,K*60
$GPMSS,0,0,0.000000,200,*5A
$GPZDA,073441,14,09,2029,00,00*48
$GPGGA,073441.250,5128.5084,N,00732.5369,E,1,05,3.2,208.8,M,47.5,M,0.0,0000*78
$GPGSA,A,3,21,24,06,03,16,,,,,,,,5.6,3.2,4.6*35
$GPRMC,073441.250,A,5128.5084,N,00732.5369,E,0.28,156.57,140929,,*04
$GPVTG,156.57,T,,M,0.28,N,0.5,K*6F
$GPZDA,073442,14,09,2029,00,00*4B
$GPGGA,073442.250,5128.5083,N,00732.5370,E,1,06,2.4,207.8,M,47.5,M,0.0,0000*7F
$GPGSA,A,3,21,24,06,03,19,16,,,,,,,3.5,2.4,2.4*3B
$GPRMC,073442.250,A,5128.5083,N,00732.5370,E,0.24,148.34,140929,,*0E
$GPVTG,148.34,T,,M,0.24,N,0.4,K*68
$GPZDA,073443,14,09,2029,00,00*4A
$GPGGA,073443.250,5128.5082,N,00732.5372,E,1,06,2.4,207.0,M,47.5,M,0.0,0000*75
$GPGSA,A,3,21,24,06,03,19,16,,,,,,,3.5,2.4,2.4*3B
$GPRMC,073443.250,A,5128.5082,N,00732.5372,E,0.20,143.90,140929,,*0D
$GPVTG,143.90,T,,M,0.20,N,0.4,K*69
$GPZDA,073444,14,09,2029,00,00*4D
$GPGGA,073444.250,5128.5081,N,00732.5374,E,1,06,2.4,206.4,M,47.5,M,0.0,0000*72
$GPGSA,A,3,21,24,06,03,19,16,,,,,,,3.5,2.4,2.4*3B
$GPRMC,073444.250,A,5128.5081,N,00732.5374,E,0.23,150.33,140929,,*07
$GPVTG,150.33,T,,M,0.23,N,0.4,K*61
$GPZDA,073445,14,09,2029,00,00*4C
$GPGGA,073445.250,5128.5080,N,00732.5376,E,1,06,2.4,205.9,M,47.5,M,0.0,0000*7E
$GPGSA,A,3,21,24,06,03,19,16,,,,,,,3.5,2.4,2.4*3B
$GPGSV,3,1,10,16,67,203,40,21,61,072,45,06,55,283,40,03,42,284,38*72
$GPGSV,3,2,10,18,38,118,38,24,24,055,32,22,20,156,00,19,17,277,29*7E
$GPGSV,3,3,10,07,13,326,30,29,06,096,00*7B
$GPRMC,073445.250,A,5128.5080,N,00732.5376,E,0.20,145.46,140929,,*00
$GPVTG,145.46,T,,M,0.20,N,0.4,K*64
$GPMSS,0,0,0.000000,200,*5A
$GPZDA,073446,14,09,2029,00,00*4F
$GPGGA,073446.250,5128.5080,N,00732.5379,E,1,06,2.4,205.6,M,47.5,M,0.0,0000*7D
$GPGSA,A,3,21,24,06,03,19,16,,,,,,,3.5,2.4,2.4*3B
$GPRMC,073446.250,A,5128.5080,N,00732.5379,E,0.21,150.36,140929,,*0E
$GPVTG,150.36,T,,M,0.21,N,0.4,K*66
$GPZDA,073447,14,09,2029,00,00*4E
$GPGGA,073447.250,5128.5080,N,00732.5382,E,1,06,2.4,204.9,M,47.5,M,0.0,0000*76
$GPGSA,A,3,21,24,06,03,19,16,,,,,,,3.5,2.4,2.4*3B
$GPRMC,073447.250,A,5128.5080,N,00732.5382,E,0.21,144.88,140929,,*0B
$GPVTG,144.88,T,,M,0.21,N,0.4,K*66
$GPZDA,073448,14,09,2029,00,00*41
$GPGGA,073448.250,5128.5080,N,00732.5383,E,1,06,2.4,204.3,M,47.5,M,0.0,0000*72
$GPGSA,A,3,21,24,06,03,19,16,,,,,,,3.5,2.4,2.4*3B
$GPRMC,073448.250,A,5128.5080,N,00732.5383,E,0.20,150.07,140929,,*06
$GPVTG,150.07,T,,M,0.20,N,0.4,K*65
$GPZDA,073449,14,09,2029,00,00*40
$GPGGA,073449.250,5128.5081,N,00732.5388,E,1,06,2.4,204.1,M,47.5,M,0.0,0000*7B
$GPGSA,A,3,21,24,06,03,19,16,,,,,,,3.5,2.4,2.4*3B
$GPRMC,073449.250,A,5128.5081,N,00732.5388,E,1.32,77.35,140929,,*3A
$GPVTG,77.35,T,,M,1.32,N,2.4,K*50
$GPZDA,073450,14,09,2029,00,00*48
$GPGGA,073450.250,5128.5084,N,00732.5399,E,1,06,2.4,204.1,M,47.5,M,0.0,0000*76
$GPGSA,A,3,21,24,06,03,19,16,,,,,,,3.5,2.4,2.4*3B
$GPGSV,3,1,10,16,67,203,38,21,61,072,47,06,55,283,36,03,42,284,37*71
$GPGSV,3,2,10,18,38,118,36,24,23,055,31,22,20,156,00,19,17,277,29*74
$GPGSV,3,3,10,07,13,326,32,29,06,096,00*79
$GPRMC,073450.250,A,5128.5084,N,00732.5399,E,3.83,68.45,140929,,*36
$GPVTG,68.45,T,,M,3.83,N,7.1,K*51
$GPMSS,0,0,0.000000,200,*5A
$GPZDA,073451,14,09,2029,00,00*49
$GPGGA,073451.250,5128.5089,N,00732.5418,E,1,05,3.2,204.4,M,47.5,M,0.0,0000*75
$GPGSA,A,3,21,24,06,03,16,,,,,,,,5.6,3.2,4.6*35
$GPRMC,073451.250,A,5128.5089,N,00732.5418,E,4.68,67.93,140929,,*32
$GPVTG,67.93,T,,M,4.68,N,8.7,K*5E
$GPZDA,073452,14,09,2029,00,00*4A
$GPGGA,073452.250,5128.5095,N,00732.5439,E,1,05,3.2,204.7,M,47.5,M,0.0,0000*7B
$GPGSA,A,3,21,24,06,03,16,,,,,,,,5.6,3.2,4.6*35
$GPRMC,073452.250,A,5128.5095,N,00732.5439,E,5.27,68.59,140929,,*3C
$GPVTG,68.59,T,,M,5.27,N,9.8,K*53
$GPZDA,073453,14,09,2029,00,00*4B
$GPGGA,073453.250,5128.5101,N,00732.5462,E,1,05,3.2,205.0,M,47.5,M,0.0,0000*7E
$GPGSA,A,3,21,24,06,03,16,,,,,,,,5.6,3.2,4.6*35
$GPRMC,073453.250,A,5128.5101,N,00732.5462,E,5.64,70.81,140929,,*34
$GPVTG,70.81,T,,M,5.64,N,10.4,K*6C
$GPZDA,073454,14,09,2029,00,00*4C
$GPGGA,073454.250,5128.5107,N,00732.5490,E,1,05,3.2,205.3,M,47.5,M,0.0,0000*71
$GPGSA,A,3,21,24,06,03,16,,,,,,,,5.6,3.2,4.6*35
$GPRMC,073454.250,A,5128.5107,N,00732.5490,E,7.41,74.57,140929,,*32
$GPVTG,74.57,T,,M,7.41,N,13.7,K*66
$GPZDA,073455,14,09,2029,00,00*4D
$GPGGA,073455.250,5128.5112,N,00732.5525,E,1,06,2.4,205.7,M,47.5,M,0.0,0000*7B
$GPGSA,A,3,21,24,06,03,19,16,,,,,,,3.5,2.4,2.4*3B
$GPGSV,3,1,10,16,67,203,41,21,61,072,45,06,55,283,40,03,42,284,41*7D
$GPGSV,3,2,10,18,38,118,33,24,23,055,37,22,20,156,00,19,17,277,29*77
$GPGSV,3,3,10,07,13,326,29,29,06,096,00*73
$GPRMC,073455.250,A,5128.5112,N,00732.5525,E,8.21,80.48,140929,,*34
$GPVTG,80.48,T,,M,8.21,N,15.2,K*69
$GPMSS,0,0,0.000000,200,*5A
$GPZDA,073456,14,09,2029,00,00*4E
$GPGGA,073456.249,5128.5114,N,00732.5567,E,1,06,2.4,206.2,M,47.5,M,0.0,0000*76
$GPGSA,A,3,21,24,06,03,19,16,,,,,,,3.5,2.4,2.4*3B
$GPRMC,073456.249,A,5128.5114,N,00732.5567,E,9.99,91.28,140929,,*3B
$GPVTG,91.28,T,,M,9.99,N,18.5,K*67
$GPZDA,073457,14,09,2029,00,00*4F
$GPGGA,073457.249,5128.5109,N,00732.5615,E,1,06,2.4,206.7,M,47.5,M,0.0,0000*78
$GPGSA,A,3,21,24,06,03,19,16,,,,,,,3.5,2.4,2.4*3B
$GPRMC,073457.249,A,5128.5109,N,00732.5615,E,11.56,108.24,140929,,*37
$GPVTG,108.24,T,,M,11.56,N,21.4,K*6B
$GPZDA,073458,14,09,2029,00,00*40
$GPGGA,073458.249,5128.5096,N,00732.5666,E,1,05,2.6,207.6,M,47.5,M,0.0,0000*75
$GPGSA,A,3,24,06,03,19,16,,,,,,,,3.7,2.6,2.6*3A
$GPRMC,073458.249,A,5128.5096,N,00732.5666,E,12.87,118.80,140929,,*3B
$GPVTG,118.80,T,,M,12.87,N,23.8,K*65
$GPZDA,073459,14,09,2029,00,00*41
$GPGGA,073459.249,5128.5078,N,00732.5718,E,1,05,3.2,208.2,M,47.5,M,0.0,0000*72
$GPGSA,A,3,21,24,06,03,16,,,,,,,,5.6,3.2,4.5*36
$GPRMC,073459.249,A,5128.5078,N,00732.5718,E,14.00,120.20,140929,,*3A
$GPVTG,120.20,T,,M,14.00,N,25.9,K*6A
$GPZDA,073500,14,09,2029,00,00*4C
$GPGGA,073500.249,5128.5057,N,00732.5773,E,1,05,3.2,208.8,M,47.5,M,0.0,0000*75
$GPGSA,A,3,21,24,06,03,16,,,,,,,,5.6,3.2,4.5*36
$GPGSV,3,1,10,16,67,203,38,21,61,072,34,06,55,283,40,03,42,284,34*77
$GPGSV,3,2,10,18,38,118,28,24,23,055,39,22,20,156,00,19,17,277,23*79
$GPGSV,3,3,10,07,13,326,25,29,06,096,00*7F
$GPRMC,073500.249,A,5128.5057,N,00732.5773,E,15.07,121.14,140929,,*37
$GPVTG,121.14,T,,M,15.07,N,27.9,K*68
$GPMSS,0,0,0.000000,200,*5A
$GPZDA,073501,14,09,2029,00,00*4D
$GPGGA,073501.249,5128.5034,N,00732.5833,E,1,05,3.2,209.5,M,47.5,M,0.0,0000*76
$GPGSA,A,3,21,24,06,03,16,,,,,,,,5.6,3.2,4.5*36
$GPRMC,073501.249,A,5128.5034,N,00732.5833,E,15.57,122.02,140929,,*39
$GPVTG,122.02,T,,M,15.57,N,28.8,K*67
$GPZDA,073502,14,09,2029,00,00*4E
$GPGGA,073502.249,5128.5010,N,00732.5893,E,1,05,3.2,210.2,M,47.5,M,0.0,0000*76
$GPGSA,A,3,21,24,06,03,16,,,,,,,,5.6,3.2,4.5*36
$GPRMC,073502.249,A,5128.5010,N,00732.5893,E,16.19,123.16,140929,,*3B
$GPVTG,123.16,T,,M,16.19,N,30.0,K*6B
$GPZDA,073503,14,09,2029,00,00*4F
$GPGGA,073503.249,5128.4985,N,00732.5956,E,1,05,3.2,210.9,M,47.5,M,0.0,0000*70
$GPGSA,A,3,21,24,06,03,16,,,,,,,,5.6,3.2,4.5*36
$GPRMC,073503.249,A,5128.4985,N,00732.5956,E,17.04,122.04,140929,,*39
$GPVTG,122.04,T,,M,17.04,N,31.6,K*63
$GPZDA,073504,14,09,2029,00,00*48
$GPGGA,073504.249,5128.4959,N,00732.6024,E,1,04,4.2,211.6,M,47.5,M,0.0,0000*71
$GPGSA,A,3,21,06,03,16,,,,,,,,,13.0,4.2,12.2*36
$GPRMC,073504.249,A,5128.4959,N,00732.6024,E,17.97,120.56,140929,,*3F
$GPVTG,120.56,T,,M,17.97,N,33.3,K*6B
$GPZDA,073505,14,09,2029,00,00*49
$GPGGA,073505.249,5128.4934,N,00732.6096,E,1,04,4.2,212.3,M,47.5,M,0.0,0000*74
$GPGSA,A,3,21,06,03,16,,,,,,,,,13.0,4.2,12.2*36
$GPGSV,3,1,10,16,67,203,37,21,61,072,35,06,55,283,39,03,42,284,34*77
$GPGSV,3,2,10,18,38,118,35,24,23,055,22,22,20,156,00,19,17,277,24*78
$GPGSV,3,3,10,07,13,326,32,29,06,096,00*79
$GPRMC,073505.249,A,5128.4934,N,00732.6096,E,18.77,118.87,140929,,*3A
$GPVTG,118.87,T,,M,18.77,N,34.8,K*61
$GPMSS,0,0,0.000000,200,*5A
$GPZDA,073506,14,09,2029,00,00*4A
$GPGGA,073506.249,5128.4907,N,00732.6173,E,1,04,4.2,212.9,M,47.5,M,0.0,0000*77
$GPGSA,A,3,21,06,03,16,,,,,,,,,13.0,4.2,12.2*36
$GPRMC,073506.249,A,5128.4907,N,00732.6173,E,20.13,120.07,140929,,*39
$GPVTG,120.07,T,,M,20.13,N,37.3,K*63
$GPZDA,073507,14,09,2029,00,00*4B
$GPGGA,073507.249,5128.4878,N,00732.6254,E,1,04,4.2,213.6,M,47.5,M,0.0,0000*77
$GPGSA,A,3,21,06,03,16,,,,,,,,,13.0,4.2,12.2*36
$GPRMC,073507.249,A,5128.4878,N,00732.6254,E,20.82,120.07,140929,,*3F
$GPVTG,120.07,T,,M,20.82,N,38.6,K*61
$GPZDA,073508,14,09,2029,00,00*44
$GPGGA,073508.249,5128.4848,N,00732.6337,E,1,04,4.2,214.2,M,47.5,M,0.0,0000*7C
$GPGSA,A,3,21,06,03,16,,,,,,,,,13.0,4.2,12.2*36
$GPRMC,073508.249,A,5128.4848,N,00732.6337,E,21.47,119.95,140929,,*3E
$GPVTG,119.95,T,,M,21.47,N,39.8,K*67
$GPZDA,073509,14,09,2029,00,00*45
$GPGGA,073509.249,5128.4818,N,00732.6423,E,1,04,4.2,214.9,M,47.5,M,0.0,0000*71
$GPGSA,A,3,21,06,03,16,,,,,,,,,13.0,4.2,12.2*36
$GPRMC,073509.249,A,5128.4818,N,00732.6423,E,21.70,119.97,140929,,*3E
$GPVTG,119.97,T,,M,21.70,N,40.2,K*65
$GPZDA,073510,14,09,2029,00,00*4D
$GPGGA,073510.249,5128.4787,N,00732.6510,E,1,04,4.2,215.6,M,47.5,M,0.0,0000*7F
$GPGSA,A,3,21,06,03,16,,,,,,,,,13.0,4.2,12.2*36
$GPGSV,3,1,10,16,67,203,41,21,61,072,36,06,55,283,39,03,42,284,35*74
$GPGSV,3,2,10,18,38,118,37,24,23,055,00,22,20,156,00,19,17,277,00*7C
$GPGSV,3,3,10,07,13,326,22,29,06,096,00*78
$GPRMC,073510.249,A,5128.4787,N,00732.6510,E,22.27,119.77,140929,,*31
$GPVTG,119.77,T,,M,22.27,N,41.3,K*6A
$GPMSS,0,0,0.000000,200,*5A
$GPZDA,073511,14,09,2029,00,00*4C
$GPGGA,073511.249,5128.4755,N,00732.6598,E,1,04,4.2,216.3,M,47.5,M,0.0,0000*77
$GPGSA,A,3,21,06,03,16,,,,,,,,,13.0,4.2,12.2*36
$GPRMC,073511.249,A,5128.4755,N,00732.6598,E,22.93,120.93,140929,,*30
$GPVTG,120.93,T,,M,22.93,N,42.5,K*60
$GPZDA,073512,14,09,2029,00,00*4F
$GPGGA,073512.249,5128.4722,N,00732.6687,E,1,04,4.2,217.0,M,47.5,M,0.0,0000*7B
$GPGSA,A,3,21,06,03,16,,,,,,,,,13.0,4.2,12.2*36
$GPRMC,073512.249,A,5128.4722,N,00732.6687,E,23.49,121.42,140929,,*35
$GPVTG,121.42,T,,M,23.49,N,43.5,K*6A
$GPZDA,073513,14,09,2029,00,00*4E
$GPGGA,073513.248,5128.4688,N,00732.6777,E,1,04,4.2,217.5,M,47.5,M,0.0,0000*71
$GPGSA,A,3,21,06,03,16,,,,,,,,,13.0,4.2,12.2*36
$GPRMC,073513.248,A,5128.4688,N,00732.6777,E,23.90,121.81,140929,,*31
$GPVTG,121.81,T,,M,23.90,N,44.3,K*60
$GPZDA,073514,14,09,2029,00,00*49
$GPGGA,073514.248,5128.4652,N,00732.6868,E,1,04,4.2,218.1,M,47.5,M,0.0,0000*7B
$GPGSA,A,3,21,06,03,16,,,,,,,,,13.0,4.2,12.2*36
$GPRMC,073514.248,A,5128.4652,N,00732.6868,E,24.25,121.90,140929,,*39
$GPVTG,121.90,T,,M,24.25,N,44.9,K*63
$GPZDA,073515,14,09,2029,00,00*48
$GPGGA,073515.248,5128.4617,N,00732.6960,E,1,04,4.2,218.6,M,47.5,M,0.0,0000*75
$GPGSA,A,3,21,06,03,16,,,,,,,,,13.0,4.2,12.2*36
$GPGSV,3,1,10,16,67,203,42,21,61,072,38,06,55,283,40,03,42,284,35*77
$GPGSV,3,2,10,18,38,118,34,24,23,055,00,22,20,156,00,19,17,277,00*7F
$GPGSV,3,3,10,07,13,326,00,29,06,096,00*78
$GPRMC,073515.248,A,5128.4617,N,00732.6960,E,24.29,122.11,140929,,*36
$GPVTG,122.11,T,,M,24.29,N,45.0,K*6D
$GPMSS,0,0,0.000000,200,*5A
$GPZDA,073516,14,09,2029,00,00*4B
$GPGGA,073516.248,5128.4581,N,00732.7052,E,1,04,4.2,219.1,M,47.5,M,0.0,0000*75
$GPGSA,A,3,21,06,03,16,,,,,,,,,13.0,4.2,12.2*36
$GPRMC,073516.248,A,5128.4581,N,00732.7052,E,24.35,122.13,140929,,*3F
$GPVTG,122.13,T,,M,24.35,N,45.1,K*63
$GPZDA,073517,14,09,2029,00,00*4A
$GPGGA,073517.248,5128.4547,N,00732.7142,E,1,04,4.2,219.6,M,47.5,M,0.0,0000*79
$GPGSA,A,3,21,06,03,16,,,,,,,,,13.0,4.2,12.2*36
$GPRMC,073517.248,A,5128.4547,N,00732.7142,E,23.30,119.74,140929,,*3F
$GPVTG,119.74,T,,M,23.30,N,43.1,K*6E
$GPZDA,073518,14,09,2029,00,00*45
$GPGGA,073518.248,5128.4513,N,00732.7234,E,1,03,4.4,219.8,M,47.5,M,0.0,0000*7A
$GPGSA,A,2,21,06,16,,,,,,,,,,20.5,4.4,20.0*34
$GPRMC,073518.248,A,5128.4513,N,00732.7234,E,24.40,121.79,140929,,*35
$GPVTG,121.79,T,,M,24.40,N,45.2,K*6D
$GPZDA,073519,14,09,2029,00,00*44
$GPGGA,073519.248,5128.4477,N,00732.7328,E,1,04,3.2,219.9,M,47.5,M,0.0,0000*73
$GPGSA,A,3,21,24,06,16,,,,,,,,,5.8,3.2,4.8*36
$GPRMC,073519.248,A,5128.4477,N,00732.7328,E,24.49,122.01,140929,,*3E
$GPVTG,122.01,T,,M,24.49,N,45.4,K*6E
$GPZDA,073520,14,09,2029,00,00*4E
$GPGGA,073520.248,5128.4442,N,00732.7421,E,1,05,3.0,219.6,M,47.5,M,0.0,0000*7D
$GPGSA,A,3,21,24,06,03,16,,,,,,,,5.5,3.0,4.5*37
$GPGSV,3,1,10,16,67,203,36,21,60,072,36,06,55,283,34,03,42,284,28*74
$GPGSV,3,2,10,18,38,117,36,24,23,055,38,22,21,156,00,19,17,277,00*78
$GPGSV,3,3,10,07,13,326,00,29,06,096,00*78
$GPRMC,073520.248,A,5128.4442,N,00732.7421,E,24.20,121.12,140929,,*32
$GPVTG,121.12,T,,M,24.20,N,44.8,K*6D
$GPMSS,0,0,0.000000,200,*5A
$GPZDA,073521,14,09,2029,00,00*4F
$GPGGA,073521.248,5128.4408,N,00732.7512,E,1,04,3.2,219.5,M,47.5,M,0.0,0000*73
$GPGSA,A,3,21,24,06,16,,,,,,,,,5.8,3.2,4.8*36
$GPRMC,073521.248,A,5128.4408,N,00732.7512,E,23.38,120.39,140929,,*3A
$GPVTG,120.39,T,,M,23.38,N,43.3,K*67
$GPZDA,073522,14,09,2029,00,00*4C
$GPGGA,073522.248,5128.4375,N,00732.7599,E,1,05,3.0,220.0,M,47.5,M,0.0,0000*72
$GPGSA,A,3,21,24,06,03,16,,,,,,,,5.5,3.0,4.5*37
$GPRMC,073522.248,A,5128.4375,N,00732.7599,E,22.60,121.51,140929,,*34
$GPVTG,121.51,T,,M,22.60,N,41.9,K*6C
$GPZDA,073523,14,09,2029,00,00*4D
$GPGGA,073523.248,5128.4342,N,00732.7681,E,1,04,4.2,220.3,M,47.5,M,0.0,0000*7A
$GPGSA,A,3,21,06,03,16,,,,,,,,,12.9,4.2,12.2*3E
$GPRMC,073523.248,A,5128.4342,N,00732.7681,E,21.90,123.89,140929,,*30
$GPVTG,123.89,T,,M,21.90,N,40.6,K*69
$GPZDA,073524,14,09,2029,00,00*4A
$GPGGA,073524.248,5128.4308,N,00732.7760,E,1,05,2.2,220.5,M,47.5,M,0.0,0000*7C
$GPGSA,A,3,18,21,06,03,16,,,,,,,,4.4,2.2,3.8*31
$GPRMC,073524.248,A,5128.4308,N,00732.7760,E,21.28,126.14,140929,,*35
$GPVTG,126.14,T,,M,21.28,N,39.4,K*67
$GPZDA,073525,14,09,2029,00,00*4B
$GPGGA,073525.248,5128.4271,N,00732.7831,E,1,06,1.6,221.9,M,47.5,M,0.0,0000*70
$GPGSA,A,3,18,21,24,06,03,16,,,,,,,3.5,1.6,3.1*3F
$GPGSV,3,1,10,16,67,202,42,21,60,071,38,06,55,283,36,03,42,284,34*74
$GPGSV,3,2,10,18,38,120,37,24,23,055,30,22,21,156,28,19,17,277,00*7F
$GPGSV,3,3,10,07,13,326,00,29,06,096,00*78
$GPRMC,073525.248,A,5128.4271,N,00732.7831,E,21.08,130.66,140929,,*30
$GPVTG,130.66,T,,M,21.08,N,39.0,K*63
$GPMSS,0,0,0.000000,200,*5A
$GPZDA,073526,14,09,2029,00,00*48
$GPGGA,073526.248,5128.4232,N,00732.7897,E,1,06,1.6,223.4,M,47.5,M,0.0,0000*77
$GPGSA,A,3,18,21,24,06,03,16,,,,,,,3.5,1.6,3.1*3F
$GPRMC,073526.248,A,5128.4232,N,00732.7897,E,20.85,135.22,140929,,*39
$GPVTG,135.22,T,,M,20.85,N,38.6,K*65
$GPZDA,073527,14,09,2029,00,00*49
$GPGGA,073527.248,5128.4190,N,00732.7958,E,1,06,1.6,223.8,M,47.5,M,0.0,0000*73
$GPGSA,A,3,18,21,24,06,03,16,,,,,,,3.5,1.6,3.1*3F
$GPRMC,073527.248,A,5128.4190,N,00732.7958,E,20.68,139.91,140929,,*36
$GPVTG,139.91,T,,M,20.68,N,38.3,K*67
$GPZDA,073528,14,09,2029,00,00*46
$GPGGA,073528.248,5128.4143,N,00732.8016,E,1,06,1.6,223.6,M,47.5,M,0.0,0000*70
$GPGSA,A,3,18,21,24,06,03,16,,,,,,,3.5,1.6,3.1*3F
$GPRMC,073528.248,A,5128.4143,N,00732.8016,E,20.90,143.86,140929,,*37
$GPVTG,143.86,T,,M,20.90,N,38.7,K*6F
$GPZDA,073529,14,09,2029,00,00*47
$GPGGA,073529.247,5128.4095,N,00732.8067,E,1,04,5.2,223.8,M,47.5,M,0.0,0000*7E
$GPGSA,A,3,24,06,03,16,,,,,,,,,11.3,5.2,9.9*02
$GPRMC,073529.247,A,5128.4095,N,00732.8067,E,20.73,147.66,140929,,*32
$GPVTG,147.66,T,,M,20.73,N,38.4,K*6B
$GPZDA,073530,14,09,2029,00,00*4F
$GPGGA,073530.247,5128.4044,N,00732.8109,E,1,06,2.4,222.9,M,47.5,M,0.0,0000*70
$GPGSA,A,3,21,24,06,03,19,16,,,,,,,3.5,2.4,2.4*3B
$GPGSV,3,1,10,16,67,202,46,21,60,071,32,06,55,283,34,03,42,284,41*7A
$GPGSV,3,2,10,18,38,120,26,24,23,055,33,22,21,156,35,19,17,277,38*7B
$GPGSV,3,3,10,07,13,326,33,29,06,096,00*78
$GPRMC,073530.247,A,5128.4044,N,00732.8109,E,20.59,153.05,140929,,*37
$GPVTG,153.05,T,,M,20.59,N,38.1,K*66
$GPMSS,0,0,0.000000,200,*5A
$GPZDA,073531,14,09,2029,00,00*4E
$GPGGA,073531.247,5128.3991,N,00732.8142,E,1,07,1.4,222.3,M,47.5,M,0.0,0000*70
$GPGSA,A,3,18,21,24,06,03,19,16,,,,,,2.4,1.4,1.9*3F
$GPRMC,073531.247,A,5128.3991,N,00732.8142,E,20.80,157.04,140929,,*3E
$GPVTG,157.04,T,,M,20.80,N,38.5,K*63
$GPZDA,073532,14,09,2029,00,00*4D
$GPGGA,073532.247,5128.3936,N,00732.8171,E,1,07,1.4,222.0,M,47.5,M,0.0,0000*7D
$GPGSA,A,3,18,21,24,06,03,19,16,,,,,,2.4,1.4,1.9*3F
$GPRMC,073532.247,A,5128.3936,N,00732.8171,E,20.79,159.74,140929,,*3F
$GPVTG,159.74,T,,M,20.79,N,38.5,K*6C
$GPZDA,073533,14,09,2029,00,00*4C
$GPGGA,073533.247,5128.3882,N,00732.8199,E,1,06,1.6,222.0,M,47.5,M,0.0,0000*77
$GPGSA,A,3,18,24,06,03,19,16,,,,,,,2.7,1.6,2.2*35
$GPRMC,073533.247,A,5128.3882,N,00732.8199,E,20.72,161.54,140929,,*34
$GPVTG,161.54,T,,M,20.72,N,38.4,K*6F
$GPZDA,073534,14,09,2029,00,00*4B
$GPGGA,073534.247,5128.3828,N,00732.8226,E,1,05,2.6,222.1,M,47.5,M,0.0,0000*76
$GPGSA,A,3,18,24,06,03,16,,,,,,,,6.6,2.6,6.0*3D
$GPRMC,073534.247,A,5128.3828,N,00732.8226,E,20.52,162.03,140929,,*37
$GPVTG,162.03,T,,M,20.52,N,38.0,K*68
$GPZDA,073535,14,09,2029,00,00*4A
$GPGGA,073535.247,5128.3774,N,00732.8252,E,1,06,1.6,222.3,M,47.5,M,0.0,0000*70
$GPGSA,A,3,18,21,24,06,03,16,,,,,,,3.5,1.6,3.1*3F
$GPGSV,3,1,10,16,67,202,47,21,60,071,30,06,55,283,36,03,42,284,40*7A
$GPGSV,3,2,10,18,38,120,37,24,23,055,34,22,21,156,34,19,17,277,29*7D
$GPGSV,3,3,10,07,13,326,30,29,06,096,00*7B
$GPRMC,073535.247,A,5128.3774,N,00732.8252,E,20.17,159.94,140929,,*34
$GPVTG,159.94,T,,M,20.17,N,37.3,K*63
$GPMSS,0,0,0.000000,200,*5A
$GPZDA,073536,14,09,2029,00,00*49
$GPGGA,073536.247,5128.3724,N,00732.8286,E,1,04,5.2,222.3,M,47.5,M,0.0,0000*7D
$GPGSA,A,3,24,06,03,16,,,,,,,,,11.3,5.2,9.9*02
$GPRMC,073536.247,A,5128.3724,N,00732.8286,E,19.74,153.98,140929,,*32
$GPVTG,153.98,T,,M,19.74,N,36.6,K*6E
$GPZDA,073537,14,09,2029,00,00*48
$GPGGA,073537.247,5128.3679,N,00732.8330,E,1,06,1.6,222.4,M,47.5,M,0.0,0000*7C
$GPGSA,A,3,18,21,24,06,03,16,,,,,,,3.5,1.6,3.1*3F
$GPRMC,073537.247,A,5128.3679,N,00732.8330,E,19.34,143.33,140929,,*32
$GPVTG,143.33,T,,M,19.34,N,35.8,K*67
$GPZDA,073538,14,09,2029,00,00*47
$GPGGA,073538.247,5128.3641,N,00732.8387,E,1,06,1.6,222.3,M,47.5,M,0.0,0000*73
$GPGSA,A,3,18,21,24,06,03,16,,,,,,,3.5,1.6,3.1*3F
$GPRMC,073538.247,A,5128.3641,N,00732.8387,E,18.59,131.50,140929,,*30
$GPVTG,131.50,T,,M,18.59,N,34.4,K*60
$GPZDA,073539,14,09,2029,00,00*46
$GPGGA,073539.247,5128.3611,N,00732.8454,E,1,06,1.6,221.7,M,47.5,M,0.0,0000*79
$GPGSA,A,3,18,21,24,06,03,16,,,,,,,3.5,1.6,3.1*3F
$GPRMC,073539.247,A,5128.3611,N,00732.8454,E,17.86,120.20,140929,,*37
$GPVTG,120.20,T,,M,17.86,N,33.1,K*68
$GPZDA,073540,14,09,2029,00,00*48
$GPGGA,073540.247,5128.3590,N,00732.8525,E,1,06,1.6,220.9,M,47.5,M,0.0,0000*75
$GPGSA,A,3,18,21,24,06,03,16,,,,,,,3.6,1.6,3.1*3C
$GPGSV,3,1,10,16,67,202,44,21,60,071,39,06,55,283,38,03,42,284,37*7E
$GPGSV,3,2,10,18,38,120,41,24,23,055,37,22,21,156,32,19,17,277,00*72
$GPGSV,3,3,10,07,13,326,35,29,06,096,26*7A
$GPRMC,073540.247,A,5128.3590,N,00732.8525,E,17.42,110.47,140929,,*3E
$GPVTG,110.47,T,,M,17.42,N,32.3,K*61
$GPMSS,0,0,0.000000,200,*5A
$GPZDA,073541,14,09,2029,00,00*49
$GPGGA,073541.247,5128.3578,N,00732.8599,E,1,06,1.6,220.3,M,47.5,M,0.0,0000*7F
$GPGSA,A,3,18,21,24,06,03,16,,,,,,,3.6,1.6,3.1*3C
$GPRMC,073541.247,A,5128.3578,N,00732.8599,E,17.15,101.45,140929,,*3E
$GPVTG,101.45,T,,M,17.15,N,31.8,K*69
$GPZDA,073542,14,09,2029,00,00*4A
$GPGGA,073542.247,5128.3572,N,00732.8673,E,1,07,1.4,219.5,M,47.5,M,0.0,0000*7E
$GPGSA,A,3,18,21,24,06,03,19,16,,,,,,2.4,1.4,1.9*3F
$GPRMC,073542.247,A,5128.3572,N,00732.8673,E,16.57,93.00,140929,,*0C
$GPVTG,93.00,T,,M,16.57,N,30.7,K*5B
$GPZDA,073543,14,09,2029,00,00*4B
$GPGGA,073543.247,5128.3573,N,00732.8745,E,1,06,2.2,219.3,M,47.5,M,0.0,0000*78
$GPGSA,A,3,18,21,06,03,19,16,,,,,,,3.1,2.2,2.1*33
$GPRMC,073543.247,A,5128.3573,N,00732.8745,E,15.90,83.66,140929,,*01
$GPVTG,83.66,T,,M,15.90,N,29.4,K*59
$GPZDA,073544,14,09,2029,00,00*4C
$GPGGA,073544.247,5128.3582,N,00732.8813,E,1,07,1.4,219.1,M,47.5,M,0.0,0000*7B
$GPGSA,A,3,18,21,24,06,03,19,16,,,,,,2.4,1.4,1.9*3F
$GPRMC,073544.247,A,5128.3582,N,00732.8813,E,15.30,74.25,140929,,*01
$GPVTG,74.25,T,,M,15.30,N,28.3,K*5A
$GPZDA,073545,14,09,2029,00,00*4D
$GPGGA,073545.247,5128.3597,N,00732.8875,E,1,07,1.4,218.9,M,47.5,M,0.0,0000*77
$GPGSA,A,3,18,21,24,06,03,19,16,,,,,,2.4,1.4,1.9*3F
$GPGSV,3,1,10,16,67,202,39,21,60,071,46,06,55,283,36,03,42,284,36*73
$GPGSV,3,2,10,18,38,120,38,24,23,055,31,22,21,156,30,19,17,277,33*78
$GPGSV,3,3,10,07,13,326,33,29,06,096,34*7F
$GPRMC,073545.247,A,5128.3597,N,00732.8875,E,14.99,64.20,140929,,*02
$GPVTG,64.20,T,,M,14.99,N,27.8,K*58
$GPMSS,0,0,0.000000,200,*5A
$GPZDA,073546,14,09,2029,00,00*4E
$GPGGA,073546.246,5128.3617,N,00732.8931,E,1,07,1.4,218.9,M,47.5,M,0.0,0000*7F
$GPGSA,A,3,18,21,24,06,03,19,16,,,,,,2.4,1.4,1.9*3F
$GPRMC,073546.246,A,5128.3617,N,00732.8931,E,14.37,58.97,140929,,*0D
$GPVTG,58.97,T,,M,14.37,N,26.6,K*50
$GPZDA,073547,14,09,2029,00,00*4F
$GPGGA,073547.246,5128.3639,N,00732.8984,E,1,07,1.4,218.8,M,47.5,M,0.0,0000*7D
$GPGSA,A,3,18,21,24,06,03,19,16,,,,,,2.4,1.4,1.9*3F
$GPRMC,073547.246,A,5128.3639,N,00732.8984,E,13.92,57.60,140929,,*01
$GPVTG,57.60,T,,M,13.92,N,25.8,K*52
$GPZDA,073548,14,09,2029,00,00*40
$GPGGA,073548.246,5128.3656,N,00732.9037,E,1,07,1.4,218.7,M,47.5,M,0.0,0000*74
$GPGSA,A,3,18,21,24,06,03,19,16,,,,,,2.4,1.4,1.9*3F
$GPRMC,073548.246,A,5128.3656,N,00732.9037,E,13.49,69.08,140929,,*02
$GPVTG,69.08,T,,M,13.49,N,25.0,K*5F
$GPZDA,073549,14,09,2029,00,00*41
$GPGGA,073549.246,5128.3665,N,00732.9093,E,1,07,1.4,218.8,M,47.5,M,0.0,0000*74
$GPGSA,A,3,18,21,24,06,03,19,16,,,,,,2.4,1.4,1.9*3F
$GPRMC,073549.246,A,5128.3665,N,00732.9093,E,12.97,85.93,140929,,*0F
$GPVTG,85.93,T,,M,12.97,N,24.0,K*5C
$GPZDA,073550,14,09,2029,00,00*49
$GPGGA,073550.246,5128.3663,N,00732.9152,E,1,07,1.4,218.8,M,47.5,M,0.0,0000*76
$GPGSA,A,3,18,21,24,06,03,19,16,,,,,,2.4,1.4,1.9*3F
$GPGSV,3,1,10,16,67,202,44,21,60,071,35,06,55,283,40,03,42,284,41*7C
$GPGSV,3,2,10,18,38,119,37,24,23,055,39,22,21,156,33,19,17,277,34*71
$GPGSV,3,3,10,07,13,326,36,29,05,096,31*7C
$GPRMC,073550.246,A,5128.3663,N,00732.9152,E,13.80,103.77,140929,,*3F
$GPVTG,103.77,T,,M,13.80,N,25.6,K*69
$GPMSS,0,0,0.000000,200,*5A
$GPZDA,073551,14,09,2029,00,00*48
$GPGGA,073551.246,5128.3647,N,00732.9207,E,1,07,1.4,218.8,M,47.5,M,0.0,0000*72
$GPGSA,A,3,18,21,24,06,03,19,16,,,,,,2.4,1.4,1.9*3F
$GPRMC,073551.246,A,5128.3647,N,00732.9207,E,14.24,125.38,140929,,*3D
$GPVTG,125.38,T,,M,14.24,N,26.4,K*6E
$GPZDA,073552,14,09,2029,00,00*4B
$GPGGA,073552.246,5128.3620,N,00732.9256,E,1,07,1.4,218.9,M,47.5,M,0.0,0000*75
$GPGSA,A,3,18,21,24,06,03,19,16,,,,,,2.4,1.4,1.9*3F
$GPRMC,073552.246,A,5128.3620,N,00732.9256,E,15.95,137.78,140929,,*37
$GPVTG,137.78,T,,M,15.95,N,29.5,K*6C
$GPZDA,073553,14,09,2029,00,00*4A
$GPGGA,073553.246,5128.3583,N,00732.9307,E,1,07,1.4,219.1,M,47.5,M,0.0,0000*72
$GPGSA,A,3,18,21,24,06,03,19,16,,,,,,2.4,1.4,1.9*3F
$GPRMC,073553.246,A,5128.3583,N,00732.9307,E,19.30,139.14,140929,,*3E
$GPVTG,139.14,T,,M,19.30,N,35.7,K*64
$GPZDA,073554,14,09,2029,00,00*4D
$GPGGA,073554.246,5128.3539,N,00732.9368,E,1,07,1.4,219.3,M,47.5,M,0.0,0000*7F
$GPGSA,A,3,18,21,24,06,03,19,16,,,,,,2.4,1.4,1.9*3F
$GPRMC,073554.246,A,5128.3539,N,00732.9368,E,22.81,138.82,140929,,*3D
$GPVTG,138.82,T,,M,22.81,N,42.2,K*6D
$GPZDA,073555,14,09,2029,00,00*4C
$GPGGA,073555.246,5128.3489,N,00732.9438,E,1,07,1.4,219.5,M,47.5,M,0.0,0000*70
$GPGSA,A,3,18,21,24,06,03,19,16,,,,,,2.4,1.4,1.9*3F
$GPGSV,3,1,10,16,67,202,39,21,60,071,37,06,55,283,43,03,42,284,42*74
$GPGSV,3,2,10,18,38,119,39,24,23,055,39,22,21,156,35,19,17,277,36*7B
$GPGSV,3,3,10,07,13,326,32,29,05,096,00*7A
$GPRMC,073555.246,A,5128.3489,N,00732.9438,E,25.18,138.30,140929,,*3A
$GPVTG,138.30,T,,M,25.18,N,46.6,K*63
$GPMSS,0,0,0.000000,200,*5A
$GPZDA,073556,14,09,2029,00,00*4F
$GPGGA,073556.246,5128.3434,N,00732.9517,E,1,07,1.4,219.9,M,47.5,M,0.0,0000*75
$GPGSA,A,3,18,21,24,06,03,19,16,,,,,,2.4,1.4,1.9*3F
$GPRMC,073556.246,A,5128.3434,N,00732.9517,E,27.33,137.99,140929,,*34
$GPVTG,137.99,T,,M,27.33,N,50.6,K*63
$GPZDA,073557,14,09,2029,00,00*4E
$GPGGA,073557.246,5128.3375,N,00732.9601,E,1,07,1.4,220.2,M,47.5,M,0.0,0000*73
$GPGSA,A,3,18,21,24,06,03,19,16,,,,,,2.4,1.4,1.9*3F
$GPRMC,073557.246,A,5128.3375,N,00732.9601,E,28.69,138.01,140929,,*3D
$GPVTG,138.01,T,,M,28.69,N,53.1,K*69
$GPZDA,073558,14,09,2029,00,00*41
$GPGGA,073558.246,5128.3313,N,00732.9690,E,1,07,1.4,220.5,M,47.5,M,0.0,0000*73
$GPGSA,A,3,18,21,24,06,03,19,16,,,,,,2.4,1.4,1.9*3F
$GPRMC,073558.246,A,5128.3313,N,00732.9690,E,30.26,138.41,140929,,*3C
$GPVTG,138.41,T,,M,30.26,N,56.0,K*6B
$GPZDA,073559,14,09,2029,00,00*40
$GPGGA,073559.246,5128.3247,N,00732.9782,E,1,07,1.4,220.9,M,47.5,M,0.0,0000*7C
$GPGSA,A,3,18,21,24,06,03,19,16,,,,,,2.4,1.4,1.9*3F
$GPRMC,073559.246,A,5128.3247,N,00732.9782,E,31.83,138.20,140929,,*36
$GPVTG,138.20,T,,M,31.83,N,59.0,K*6D
$GPZDA,073600,14,09,2029,00,00*4F
$GPGGA,073600.246,5128.3178,N,00732.9879,E,1,07,1.4,221.4,M,47.5,M,0.0,0000*7B
$GPGSA,A,3,18,21,24,06,03,19,16,,,,,,2.4,1.4,1.9*3F
$GPGSV,3,1,10,16,67,202,38,21,60,071,38,06,55,283,43,03,42,284,43*7B
$GPGSV,3,2,10,18,38,119,40,24,23,055,38,22,21,156,32,19,17,277,37*72
$GPGSV,3,3,10,07,13,326,35,29,05,096,00*7D
$GPRMC,073600.246,A,5128.3178,N,00732.9879,E,33.39,139.12,140929,,*3E
$GPVTG,139.12,T,,M,33.39,N,61.8,K*6D
$GPMSS,0,0,0.000000,200,*5A
$GPZDA,073601,14,09,2029,00,00*4E
$GPGGA,073601.246,5128.3106,N,00732.9978,E,1,07,1.4,222.2,M,47.5,M,0.0,0000*76
$GPGSA,A,3,18,21,24,06,03,19,16,,,,,,2.4,1.4,1.9*3F
$GPRMC,073601.246,A,5128.3106,N,00732.9978,E,34.22,139.63,140929,,*3D
$GPVTG,139.63,T,,M,34.22,N,63.4,K*68
$GPZDA,073602,14,09,2029,00,00*4D
$GPGGA,073602.246,5128.3031,N,00733.0079,E,1,07,1.4,223.1,M,47.5,M,0.0,0000*72
$GPGSA,A,3,18,21,24,06,03,19,16,,,,,,2.4,1.4,1.9*3F
$GPRMC,073602.246,A,5128.3031,N,00733.0079,E,35.17,140.32,140929,,*36
$GPVTG,140.32,T,,M,35.17,N,65.1,K*66
$GPZDA,073603,14,09,2029,00,00*4C
$GPGGA,073603.245,5128.2953,N,00733.0180,E,1,07,1.4,224.1,M,47.5,M,0.0,0000*7C
$GPGSA,A,3,18,21,24,06,03,19,16,,,,,,2.4,1.4,1.9*3F
$GPRMC,073603.245,A,5128.2953,N,00733.0180,E,35.87,141.47,140929,,*35
$GPVTG,141.47,T,,M,35.87,N,66.4,K*6A
$GPZDA,073604,14,09,2029,00,00*4B
$GPGGA,073604.245,5128.2874,N,00733.0281,E,1,07,1.4,225.2,M,47.5,M,0.0,0000*7F
$GPGSA,A,3,18,21,24,06,03,19,16,,,,,,2.4,1.4,1.9*3F
$GPRMC,073604.245,A,5128.2874,N,00733.0281,E,36.44,141.90,140929,,*32
$GPVTG,141.90,T,,M,36.44,N,67.5,K*6C
$GPZDA,073605,14,09,2029,00,00*4A
$GPGGA,073605.245,5128.2793,N,00733.0382,E,1,07,1.4,226.3,M,47.5,M,0.0,0000*78
$GPGSA,A,3,18,21,24,06,03,19,16,,,,,,2.4,1.4,1.9*3F
$GPGSV,3,1,10,16,67,202,41,21,60,071,39,06,55,283,43,03,42,284,43*74
$GPGSV,3,2,10,18,38,119,40,24,23,055,37,22,21,156,35,19,17,277,36*7B
$GPGSV,3,3,10,07,13,326,30,29,05,096,00*78
$GPRMC,073605.245,A,5128.2793,N,00733.0382,E,36.75,142.02,140929,,*3D
$GPVTG,142.02,T,,M,36.75,N,68.1,K*6D
$GPMSS,0,0,0.000000,200,*5A
$GPZDA,073606,14,09,2029,00,00*49
$GPGGA,073606.245,5128.2711,N,00733.0484,E,1,07,1.4,227.3,M,47.5,M,0.0,0000*71
$GPGSA,A,3,18,21,24,06,03,19,16,,,,,,2.4,1.4,1.9*3F
$GPRMC,073606.245,A,5128.2711,N,00733.0484,E,36.75,142.00,140929,,*37
$GPVTG,142.00,T,,M,36.75,N,68.1,K*6F
$GPZDA,073607,14,09,2029,00,00*48
$GPGGA,073607.245,5128.2630,N,00733.0585,E,1,06,1.6,228.3,M,47.5,M,0.0,0000*7E
$GPGSA,A,3,18,21,24,06,03,16,,,,,,,3.6,1.6,3.1*3C
$GPRMC,073607.245,A,5128.2630,N,00733.0585,E,36.79,142.15,140929,,*3C
$GPVTG,142.15,T,,M,36.79,N,68.1,K*67
$GPZDA,073608,14,09,2029,00,00*47
$GPGGA,073608.245,5128.2548,N,00733.0685,E,1,06,1.6,229.4,M,47.5,M,0.0,0000*78
$GPGSA,A,3,18,21,24,06,03,16,,,,,,,3.6,1.6,3.1*3C
$GPRMC,073608.245,A,5128.2548,N,00733.0685,E,36.86,142.15,140929,,*3C
$GPVTG,142.15,T,,M,36.86,N,68.3,K*65
$GPZDA,073609,14,09,2029,00,00*46
$GPGGA,073609.245,5128.2467,N,00733.0786,E,1,06,1.6,230.3,M,47.5,M,0.0,0000*78
$GPGSA,A,3,18,21,24,06,03,16,,,,,,,3.6,1.6,3.1*3C
$GPRMC,073609.245,A,5128.2467,N,00733.0786,E,36.97,142.48,140929,,*3B
$GPVTG,142.48,T,,M,36.97,N,68.5,K*6B
$GPZDA,073610,14,09,2029,00,00*4E
$GPGGA,073610.245,5128.2384,N,00733.0886,E,1,06,1.6,231.3,M,47.5,M,0.0,0000*74
$GPGSA,A,3,18,21,24,06,03,16,,,,,,,3.6,1.6,3.1*3C
$GPGSV,3,1,10,16,67,202,40,21,60,071,39,06,55,283,43,03,42,284,43*75
$GPGSV,3,2,10,18,38,119,42,24,23,055,37,22,21,156,38,19,17,277,25*76
$GPGSV,3,3,10,07,13,326,32,29,05,096,00*7A
$GPRMC,073610.245,A,5128.2384,N,00733.0886,E,36.99,142.68,140929,,*3A
$GPVTG,142.68,T,,M,36.99,N,68.5,K*67
$GPMSS,0,0,0.000000,200,*5A
$GPZDA,073611,14,09,2029,00,00*4F
$GPGGA,073611.245,5128.2302,N,00733.0985,E,1,06,1.6,232.3,M,47.5,M,0.0,0000*7A
$GPGSA,A,3,18,21,24,06,03,16,,,,,,,3.6,1.6,3.1*3C
$GPRMC,073611.245,A,5128.2302,N,00733.0985,E,36.78,142.94,140929,,*3B
$GPVTG,142.94,T,,M,36.78,N,68.1,K*6F
$GPZDA,073612,14,09,2029,00,00*4C
$GPGGA,073612.245,5128.2220,N,00733.1083,E,1,07,1.4,233.3,M,47.5,M,0.0,0000*74
$GPGSA,A,3,18,21,24,06,03,19,16,,,,,,2.4,1.4,1.9*3F
$GPRMC,073612.245,A,5128.2220,N,00733.1083,E,36.46,143.19,140929,,*3E
$GPVTG,143.19,T,,M,36.46,N,67.5,K*6D
$GPZDA,073613,14,09,2029,00,00*4D
$GPGGA,073613.245,5128.2139,N,00733.1181,E,1,07,1.4,234.5,M,47.5,M,0.0,0000*7C
$GPGSA,A,3,18,21,24,06,03,19,16,,,,,,2.4,1.4,1.9*3F
$GPRMC,073613.245,A,5128.2139,N,00733.1181,E,36.09,142.95,140929,,*39
$GPVTG,142.95,T,,M,36.09,N,66.8,K*6F
$GPZDA,073614,14,09,2029,00,00*4A
$GPGGA,073614.245,5128.2059,N,00733.1279,E,1,07,1.4,235.7,M,47.5,M,0.0,0000*7B
$GPGSA,A,3,18,21,24,06,03,19,16,,,,,,2.4,1.4,1.9*3F
$GPRMC,073614.245,A,5128.2059,N,00733.1279,E,36.05,142.72,140929,,*38
$GPVTG,142.72,T,,M,36.05,N,66.8,K*6A
$GPZDA,073615,14,09,2029,00,00*4B
$GPGGA,073615.245,5128.1979,N,00733.1377,E,1,07,1.4,236.9,M,47.5,M,0.0,0000*70
$GPGSA,A,3,18,21,24,06,03,19,16,,,,,,2.4,1.4,1.9*3F
$GPGSV,3,1,10,16,67,202,41,21,60,071,37,06,55,283,42,03,42,284,43*7B
$GPGSV,3,2,10,18,38,119,42,24,23,055,37,22,21,156,36,19,17,277,37*7B
$GPGSV,3,3,10,07,13,326,31,29,05,096,00*79
$GPRMC,073615.245,A,5128.1979,N,00733.1377,E,36.04,142.57,140929,,*38
$GPVTG,142.57,T,,M,36.04,N,66.7,K*63
$GPMSS,0,0,0.000000,200,*5A
$GPZDA,073616,14,09,2029,00,00*48
$GPGGA,073616.245,5128.1899,N,00733.1474,E,1,07,1.4,238.0,M,47.5,M,0.0,0000*7F
$GPGSA,A,3,18,21,24,06,03,19,16,,,,,,2.4,1.4,1.9*3F
$GPRMC,073616.245,A,5128.1899,N,00733.1474,E,36.05,142.74,140929,,*30
$GPVTG,142.74,T,,M,36.05,N,66.8,K*6C
$GPZDA,073617,14,09,2029,00,00*49
$GPGGA,073617.245,5128.1818,N,00733.1571,E,1,07,1.4,239.0,M,47.5,M,0.0,0000*72
$GPGSA,A,3,18,21,24,06,03,19,16,,,,,,2.4,1.4,1.9*3F
$GPRMC,073617.245,A,5128.1818,N,00733.1571,E,36.09,142.72,140929,,*36
$GPVTG,142.72,T,,M,36.09,N,66.8,K*66
$GPZDA,073618,14,09,2029,00,00*46
$GPGGA,073618.245,5128.1738,N,00733.1668,E,1,07,1.4,239.9,M,47.5,M,0.0,0000*72
$GPGSA,A,3,18,21,24,06,03,19,16,,,,,,2.4,1.4,1.9*3F
$GPRMC,073618.245,A,5128.1738,N,00733.1668,E,35.98,142.85,140929,,*3C
$GPVTG,142.85,T,,M,35.98,N,66.6,K*6B
$GPZDA,073619,14,09,2029,00,00*47
$GPGGA,073619.245,5128.1658,N,00733.1763,E,1,07,1.4,240.7,M,47.5,M,0.0,0000*7E
$GPGSA,A,3,18,21,24,06,03,19,16,,,,,,2.4,1.4,1.9*3F
$GPRMC,073619.245,A,5128.1658,N,00733.1763,E,35.93,142.90,140929,,*3F
$GPVTG,142.90,T,,M,35.93,N,66.5,K*67
$GPZDA,073620,14,09,2029,00,00*4D
$GPGGA,073620.244,5128.1578,N,00733.1859,E,1,07,1.4,241.6,M,47.5,M,0.0,0000*72
$GPGSA,A,3,18,21,24,06,03,19,16,,,,,,2.4,1.4,1.9*3F
$GPGSV,3,1,10,16,66,202,40,21,60,071,37,06,56,283,41,03,43,284,43*7A
$GPGSV,3,2,10,18,38,119,41,24,23,055,37,22,21,156,35,19,17,277,31*7D
$GPGSV,3,3,10,07,14,326,33,29,05,096,00*7C
$GPRMC,073620.244,A,5128.1578,N,00733.1859,E,36.05,143.38,140929,,*3C
$GPVTG,143.38,T,,M,36.05,N,66.8,K*65
$GPMSS,0,0,0.000000,200,*5A
$GPZDA,073621,14,09,2029,00,00*4C
$GPGGA,073621.244,5128.1497,N,00733.1954,E,1,07,1.4,242.5,M,47.5,M,0.0,0000*7F
$GPGSA,A,3,18,21,24,06,03,19,16,,,,,,2.4,1.4,1.9*3F
$GPRMC,073621.244,A,5128.1497,N,00733.1954,E,36.01,143.35,140929,,*38
$GPVTG,143.35,T,,M,36.01,N,66.7,K*63
$GPZDA,073622,14,09,2029,00,00*4F
$GPGGA,073622.244,5128.1416,N,00733.2046,E,1,06,2.0,243.3,M,47.5,M,0.0,0000*7D
$GPGSA,A,3,18,21,06,03,19,16,,,,,,,3.1,2.0,2.2*32
$GPRMC,073622.244,A,5128.1416,N,00733.2046,E,36.19,145.23,140929,,*33
$GPVTG,145.23,T,,M,36.19,N,67.0,K*6D
$GPZDA,073623,14,09,2029,00,00*4E
$GPGGA,073623.244,5128.1332,N,00733.2135,E,1,06,2.0,244.1,M,47.5,M,0.0,0000*7D
$GPGSA,A,3,18,21,06,03,19,16,,,,,,,3.1,2.0,2.2*32
$GPRMC,073623.244,A,5128.1332,N,00733.2135,E,36.08,146.89,140929,,*35
$GPVTG,146.89,T,,M,36.08,N,66.8,K*67
$GPZDA,073624,14,09,2029,00,00*49
$GPGGA,073624.244,5128.1247,N,00733.2218,E,1,06,2.0,244.9,M,47.5,M,0.0,0000*7D
$GPGSA,A,3,18,21,06,03,19,16,,,,,,,3.1,2.0,2.2*32
$GPRMC,073624.244,A,5128.1247,N,00733.2218,E,36.01,149.31,140929,,*38
$GPVTG,149.31,T,,M,36.01,N,66.7,K*6D
$GPZDA,073625,14,09,2029,00,00*48
$GPGGA,073625.244,5128.1160,N,00733.2295,E,1,06,1.6,245.9,M,47.5,M,0.0,0000*7B
$GPGSA,A,3,18,21,24,06,03,16,,,,,,,3.6,1.6,3.1*3C
$GPGSV,3,1,10,16,66,202,38,21,60,071,34,06,56,283,40,03,43,284,43*77
$GPGSV,3,2,10,18,38,119,38,24,23,055,28,22,21,156,35,19,17,277,26*7B
$GPGSV,3,3,10,07,14,326,34,29,05,096,00*7B
$GPRMC,073625.244,A,5128.1160,N,00733.2295,E,35.87,151.84,140929,,*30
$GPVTG,151.84,T,,M,35.87,N,66.4,K*64
$GPMSS,0,0,0.000000,200,*5A
$GPZDA,073626,14,09,2029,00,00*4B
$GPGGA,073626.244,5128.1070,N,00733.2363,E,1,05,2.2,247.0,M,47.5,M,0.0,0000*7F
$GPGSA,A,3,18,21,06,03,16,,,,,,,,4.5,2.2,3.9*31
$GPRMC,073626.244,A,5128.1070,N,00733.2363,E,35.92,155.37,140929,,*33
$GPVTG,155.37,T,,M,35.92,N,66.5,K*6D
$GPZDA,073627,14,09,2029,00,00*4A
$GPGGA,073627.244,5128.0979,N,00733.2425,E,1,05,2.2,248.2,M,47.5,M,0.0,0000*77
$GPGSA,A,3,18,21,06,03,16,,,,,,,,4.5,2.2,3.9*31
$GPRMC,073627.244,A,5128.0979,N,00733.2425,E,35.77,157.18,140929,,*32
$GPVTG,157.18,T,,M,35.77,N,66.3,K*6F
$GPZDA,073628,14,09,2029,00,00*45
$GPGGA,073628.244,5128.0886,N,00733.2484,E,1,04,4.0,249.3,M,47.5,M,0.0,0000*77
$GPGSA,A,3,21,06,03,16,,,,,,,,,12.9,4.0,12.2*3C
$GPRMC,073628.244,A,5128.0886,N,00733.2484,E,35.89,158.03,140929,,*33
$GPVTG,158.03,T,,M,35.89,N,66.5,K*6D
$GPZDA,073629,14,09,2029,00,00*44
$GPGGA,073629.244,5128.0794,N,00733.2540,E,1,04,4.0,250.4,M,47.5,M,0.0,0000*7C
$GPGSA,A,3,21,06,03,16,,,,,,,,,12.9,4.0,12.2*3C
$GPRMC,073629.244,A,5128.0794,N,00733.2540,E,35.58,158.44,140929,,*38
$GPVTG,158.44,T,,M,35.58,N,65.9,K*6D
$GPZDA,073630,14,09,2029,00,00*4C
$GPGGA,073630.244,5128.0702,N,00733.2596,E,1,04,4.0,251.4,M,47.5,M,0.0,0000*71
$GPGSA,A,3,21,06,03,16,,,,,,,,,12.9,4.0,12.2*3C
$GPGSV,3,1,10,16,66,202,38,21,60,071,31,06,56,283,39,03,43,284,43*7C
$GPGSV,3,2,10,18,38,119,24,24,23,055,25,22,21,156,36,19,17,277,00*7C
$GPGSV,3,3,10,07,14,326,34,29,05,096,00*7B
$GPRMC,073630.244,A,5128.0702,N,00733.2596,E,35.19,158.47,140929,,*32
$GPVTG,158.47,T,,M,35.19,N,65.2,K*60
$GPMSS,0,0,0.000000,200,*5A
$GPZDA,073631,14,09,2029,00,00*4D
$GPGGA,073631.244,5128.0611,N,00733.2649,E,1,05,2.2,252.3,M,47.5,M,0.0,0000*73
$GPGSA,A,3,18,21,06,03,16,,,,,,,,4.5,2.2,3.9*31
$GPRMC,073631.244,A,5128.0611,N,00733.2649,E,34.76,158.12,140929,,*39
$GPVTG,158.12,T,,M,34.76,N,64.4,K*6F
$GPZDA,073632,14,09,2029,00,00*4E
$GPGGA,073632.244,5128.0521,N,00733.2702,E,1,05,2.2,253.3,M,47.5,M,0.0,0000*7F
$GPGSA,A,3,18,21,06,03,16,,,,,,,,4.5,2.2,3.9*31
$GPRMC,073632.244,A,5128.0521,N,00733.2702,E,34.55,158.87,140929,,*39
$GPVTG,158.87,T,,M,34.55,N,64.0,K*66
$GPZDA,073633,14,09,2029,00,00*4F
$GPGGA,073633.244,5128.0431,N,00733.2753,E,1,05,2.2,254.4,M,47.5,M,0.0,0000*7A
$GPGSA,A,3,18,21,06,03,16,,,,,,,,4.5,2.2,3.9*31
$GPRMC,073633.244,A,5128.0431,N,00733.2753,E,34.51,160.18,140929,,*35
$GPVTG,160.18,T,,M,34.51,N,63.9,K*61
$GPZDA,073634,14,09,2029,00,00*48
$GPGGA,073634.244,5128.0342,N,00733.2804,E,1,05,2.2,255.4,M,47.5,M,0.0,0000*72
$GPGSA,A,3,18,21,06,03,16,,,,,,,,4.5,2.2,3.9*31
$GPRMC,073634.244,A,5128.0342,N,00733.2804,E,34.16,159.59,140929,,*30
$GPVTG,159.59,T,,M,34.16,N,63.3,K*67
$GPZDA,073635,14,09,2029,00,00*49
$GPGGA,073635.244,5128.0253,N,00733.2856,E,1,05,2.2,256.5,M,47.5,M,0.0,0000*77
$GPGSA,A,3,18,21,06,03,16,,,,,,,,4.5,2.2,3.9*31
$GPGSV,3,1,10,16,66,202,39,21,60,071,30,06,56,283,41,03,43,284,43*73
$GPGSV,3,2,10,18,38,119,33,24,23,055,00,22,21,156,39,19,17,277,00*72
$GPGSV,3,3,10,07,14,326,22,29,05,096,00*7C
$GPRMC,073635.244,A,5128.0253,N,00733.2856,E,34.27,159.40,140929,,*3D
$GPVTG,159.40,T,,M,34.27,N,63.5,K*6B
$GPMSS,0,0,0.000000,200,*5A
$GPZDA,073636,14,09,2029,00,00*4A
$GPGGA,073636.244,5128.0163,N,00733.2909,E,1,05,2.2,257.5,M,47.5,M,0.0,0000*7E
$GPGSA,A,3,18,21,06,03,16,,,,,,,,4.5,2.2,3.9*31
$GPRMC,073636.244,A,5128.0163,N,00733.2909,E,34.27,159.44,140929,,*31
$GPVTG,159.44,T,,M,34.27,N,63.5,K*6F
$GPZDA,073637,14,09,2029,00,00*4B
$GPGGA,073637.243,5128.0074,N,00733.2962,E,1,04,4.0,258.4,M,47.5,M,0.0,0000*79
$GPGSA,A,3,21,06,03,16,,,,,,,,,12.9,4.0,12.2*3C
$GPRMC,073637.243,A,5128.0074,N,00733.2962,E,34.08,158.78,140929,,*3E
$GPVTG,158.78,T,,M,34.08,N,63.1,K*68
$GPZDA,073638,14,09,2029,00,00*44
$GPGGA,073638.243,5127.9984,N,00733.3016,E,1,05,2.2,259.2,M,47.5,M,0.0,0000*7F
$GPGSA,A,3,18,21,06,03,16,,,,,,,,4.5,2.2,3.9*31
$GPRMC,073638.243,A,5127.9984,N,00733.3016,E,34.58,157.53,140929,,*39
$GPVTG,157.53,T,,M,34.58,N,64.0,K*6D
$GPZDA,073639,14,09,2029,00,00*45
$GPGGA,073639.243,5127.9897,N,00733.3076,E,1,05,2.2,260.3,M,47.5,M,0.0,0000*70
$GPGSA,A,3,18,21,06,03,16,,,,,,,,4.5,2.2,3.9*31
$GPRMC,073639.243,A,5127.9897,N,00733.3076,E,33.92,155.69,140929,,*37
$GPVTG,155.69,T,,M,33.92,N,62.8,K*69
$GPZDA,073640,14,09,2029,00,00*4B
$GPGGA,073640.243,5127.9812,N,00733.3139,E,1,05,2.2,261.4,M,47.5,M,0.0,0000*7F
$GPGSA,A,3,18,21,06,03,16,,,,,,,,4.5,2.2,3.9*31
$GPGSV,3,1,10,16,66,202,35,21,60,071,34,06,56,283,36,03,43,284,28*76
$GPGSV,3,2,10,18,38,119,29,24,23,055,24,22,21,156,28,19,17,277,00*7F
$GPGSV,3,3,10,07,14,326,20,29,05,096,00*7E
$GPRMC,073640.243,A,5127.9812,N,00733.3139,E,33.88,154.63,140929,,*3E
$GPVTG,154.63,T,,M,33.88,N,62.8,K*69
$GPMSS,0,0,0.000000,200,*5A
$GPZDA,073641,14,09,2029,00,00*4A
$GPGGA,073641.243,5127.9728,N,00733.3205,E,1,05,2.2,262.4,M,47.5,M,0.0,0000*77
$GPGSA,A,3,18,21,06,03,16,,,,,,,,4.5,2.2,3.9*31
$GPRMC,073641.243,A,5127.9728,N,00733.3205,E,33.21,153.48,140929,,*38
$GPVTG,153.48,T,,M,33.21,N,61.5,K*6A
$GPZDA,073642,14,09,2029,00,00*49
$GPGGA,073642.243,5127.9646,N,00733.3276,E,1,05,2.2,263.0,M,47.5,M,0.0,0000*7C
$GPGSA,A,3,18,21,06,03,16,,,,,,,,4.5,2.2,3.9*31
$GPRMC,073642.243,A,5127.9646,N,00733.3276,E,33.84,150.62,140929,,*32
$GPVTG,150.62,T,,M,33.84,N,62.7,K*6F
$GPZDA,073643,14,09,2029,00,00*48
$GPGGA,073643.243,5127.9566,N,00733.3356,E,1,06,1.6,263.2,M,47.5,M,0.0,0000*79
$GPGSA,A,3,18,21,24,06,03,16,,,,,,,3.6,1.6,3.1*3C
$GPRMC,073643.243,A,5127.9566,N,00733.3356,E,33.70,146.52,140929,,*3E
$GPVTG,146.52,T,,M,33.70,N,62.4,K*63
$GPZDA,073644,14,09,2029,00,00*4F
$GPGGA,073644.243,5127.9489,N,00733.3444,E,1,05,2.2,263.3,M,47.5,M,0.0,0000*7F
$GPGSA,A,3,18,21,06,03,16,,,,,,,,4.5,2.2,3.9*31
$GPRMC,073644.243,A,5127.9489,N,00733.3444,E,33.54,143.85,140929,,*34
$GPVTG,143.85,T,,M,33.54,N,62.1,K*6F
$GPZDA,073645,14,09,2029,00,00*4E
$GPGGA,073645.243,5127.9415,N,00733.3537,E,1,05,2.0,263.3,M,47.5,M,0.0,0000*7C
$GPGSA,A,3,18,21,06,03,16,,,,,,,,4.5,2.0,3.9*33
$GPGSV,3,1,10,16,66,202,38,21,60,071,35,06,56,283,42,03,43,284,39*79
$GPGSV,3,2,10,18,38,119,42,24,23,055,24,22,21,156,35,19,17,277,00*7E
$GPGSV,3,3,10,07,14,326,00,29,05,096,00*7C
$GPRMC,073645.243,A,5127.9415,N,00733.3537,E,33.52,142.18,140929,,*36
$GPVTG,142.18,T,,M,33.52,N,62.1,K*6C
$GPMSS,0,0,0.000000,200,*5A
$GPZDA,073646,14,09,2029,00,00*4D
$GPGGA,073646.243,5127.9343,N,00733.3633,E,1,05,2.0,263.2,M,47.5,M,0.0,0000*7D
$GPGSA,A,3,18,21,06,03,16,,,,,,,,4.5,2.0,3.9*33
$GPRMC,073646.243,A,5127.9343,N,00733.3633,E,33.27,139.57,140929,,*33
$GPVTG,139.57,T,,M,33.27,N,61.6,K*6D
$GPZDA,073647,14,09,2029,00,00*4C
$GPGGA,073647.243,5127.9274,N,00733.3734,E,1,05,2.0,263.0,M,47.5,M,0.0,0000*7D
$GPGSA,A,3,18,21,06,03,16,,,,,,,,4.5,2.0,3.9*33
$GPRMC,073647.243,A,5127.9274,N,00733.3734,E,33.02,137.28,140929,,*30
$GPVTG,137.28,T,,M,33.02,N,61.2,K*68
$GPZDA,073648,14,09,2029,00,00*43
$GPGGA,073648.243,5127.9209,N,00733.3839,E,1,06,1.6,262.6,M,47.5,M,0.0,0000*7B
$GPGSA,A,3,18,21,24,06,03,16,,,,,,,3.6,1.6,3.2*3F
$GPRMC,073648.243,A,5127.9209,N,00733.3839,E,32.63,133.37,140929,,*3B
$GPVTG,133.37,T,,M,32.63,N,60.4,K*63
$GPZDA,073649,14,09,2029,00,00*42
$GPGGA,073649.243,5127.9149,N,00733.3948,E,1,06,1.6,262.2,M,47.5,M,0.0,0000*7E
$GPGSA,A,3,18,21,24,06,03,16,,,,,,,3.6,1.6,3.2*3F
$GPRMC,073649.243,A,5127.9149,N,00733.3948,E,32.26,131.67,140929,,*3C
$GPVTG,131.67,T,,M,32.26,N,59.7,K*6C
$GPZDA,073650,14,09,2029,00,00*4A
$GPGGA,073650.243,5127.9091,N,00733.4059,E,1,05,2.0,261.9,M,47.5,M,0.0,0000*72
$GPGSA,A,3,18,21,06,03,16,,,,,,,,4.5,2.0,3.9*33
$GPGSV,3,1,10,16,66,201,38,21,60,071,39,06,56,283,41,03,43,284,34*78
$GPGSV,3,2,10,18,38,119,41,24,23,055,26,22,21,156,25,19,17,277,00*7E
$GPGSV,3,3,10,07,14,325,00,29,05,096,00*7F
$GPRMC,073650.243,A,5127.9091,N,00733.4059,E,32.03,130.31,140929,,*3B
$GPVTG,130.31,T,,M,32.03,N,59.3,K*6D
$GPMSS,0,0,0.000000,200,*5A
$GPZDA,073651,14,09,2029,00,00*4B
$GPGGA,073651.243,5127.9034,N,00733.4169,E,1,05,2.0,261.4,M,47.5,M,0.0,0000*73
$GPGSA,A,3,18,21,06,03,16,,,,,,,,4.5,2.0,3.9*33
$GPRMC,073651.243,A,5127.9034,N,00733.4169,E,31.97,129.36,140929,,*36
$GPVTG,129.36,T,,M,31.97,N,59.2,K*6D
$GPZDA,073652,14,09,2029,00,00*48
$GPGGA,073652.243,5127.8979,N,00733.4281,E,1,05,2.0,261.0,M,47.5,M,0.0,0000*70
$GPGSA,A,3,18,21,06,03,16,,,,,,,,4.5,2.0,3.9*33
$GPRMC,073652.243,A,5127.8979,N,00733.4281,E,31.73,128.35,140929,,*39
$GPVTG,128.35,T,,M,31.73,N,58.8,K*6E
$GPZDA,073653,14,09,2029,00,00*49
$GPGGA,073653.242,5127.8925,N,00733.4393,E,1,05,2.0,260.7,M,47.5,M,0.0,0000*7D
$GPGSA,A,3,18,21,06,03,16,,,,,,,,4.5,2.0,3.9*33
$GPRMC,073653.242,A,5127.8925,N,00733.4393,E,31.74,127.83,140929,,*37
$GPVTG,127.83,T,,M,31.74,N,58.8,K*6B
$GPZDA,073654,14,09,2029,00,00*4E
$GPGGA,073654.242,5127.8871,N,00733.4505,E,1,05,2.0,260.3,M,47.5,M,0.0,0000*77
$GPGSA,A,3,18,21,06,03,16,,,,,,,,4.5,2.0,3.9*33
$GPRMC,073654.242,A,5127.8871,N,00733.4505,E,31.55,128.02,140929,,*3C
$GPVTG,128.02,T,,M,31.55,N,58.4,K*62
$GPZDA,073655,14,09,2029,00,00*4F
$GPGGA,073655.242,5127.8817,N,00733.4615,E,1,05,2.0,260.0,M,47.5,M,0.0,0000*77
$GPGSA,A,3,18,21,06,03,16,,,,,,,,4.5,2.0,3.9*33
$GPGSV,3,1,10,16,66,201,38,21,60,071,39,06,56,283,42,03,43,284,39*76
$GPGSV,3,2,10,18,38,119,39,24,23,055,23,22,21,156,33,19,17,277,26*77
$GPGSV,3,3,10,07,14,325,00,29,05,096,00*7F
$GPRMC,073655.242,A,5127.8817,N,00733.4615,E,30.98,129.01,140929,,*3D
$GPVTG,129.01,T,,M,30.98,N,57.4,K*6F
$GPMSS,0,0,0.000000,200,*5A
$GPZDA,073656,14,09,2029,00,00*4C
$GPGGA,073656.242,5127.8764,N,00733.4719,E,1,05,2.0,259.6,M,47.5,M,0.0,0000*7E
$GPGSA,A,3,18,21,06,03,16,,,,,,,,4.5,2.0,3.9*33
$GPRMC,073656.242,A,5127.8764,N,00733.4719,E,29.85,130.97,140929,,*3B
$GPVTG,130.97,T,,M,29.85,N,55.3,K*69
$GPZDA,073657,14,09,2029,00,00*4D
$GPGGA,073657.242,5127.8709,N,00733.4816,E,1,05,2.0,259.2,M,47.5,M,0.0,0000*70
$GPGSA,A,3,18,21,06,03,16,,,,,,,,4.5,2.0,3.9*33
$GPRMC,073657.242,A,5127.8709,N,00733.4816,E,29.20,133.10,140929,,*32
$GPVTG,133.10,T,,M,29.20,N,54.1,K*69
$GPZDA,073658,14,09,2029,00,00*42
$GPGGA,073658.242,5127.8653,N,00733.4907,E,1,05,2.0,258.9,M,47.5,M,0.0,0000*7A
$GPGSA,A,3,18,21,06,03,16,,,,,,,,4.5,2.0,3.9*33
$GPRMC,073658.242,A,5127.8653,N,00733.4907,E,28.87,135.83,140929,,*32
$GPVTG,135.83,T,,M,28.87,N,53.5,K*6A
$GPZDA,073659,14,09,2029,00,00*43
$GPGGA,073659.242,5127.8595,N,00733.4993,E,1,06,1.6,258.6,M,47.5,M,0.0,0000*76
$GPGSA,A,3,18,21,24,06,03,16,,,,,,,3.6,1.6,3.2*3F
$GPRMC,073659.242,A,5127.8595,N,00733.4993,E,28.43,138.42,140929,,*3F
$GPVTG,138.42,T,,M,28.43,N,52.6,K*60
$GPZDA,073700,14,09,2029,00,00*4E
$GPGGA,073700.242,5127.8535,N,00733.5072,E,1,05,2.0,258.5,M,47.5,M,0.0,0000*73
$GPGSA,A,3,18,21,06,03,16,,,,,,,,4.5,2.0,4.0*3D
$GPGSV,3,1,10,16,66,201,38,21,60,071,34,06,56,283,41,03,43,284,40*76
$GPGSV,3,2,10,18,38,119,39,24,23,055,23,22,21,156,30,19,17,277,24*76
$GPGSV,3,3,10,07,14,325,00,29,05,096,00*7F
$GPRMC,073700.242,A,5127.8535,N,00733.5072,E,28.09,142.16,140929,,*3D
$GPVTG,142.16,T,,M,28.09,N,52.0,K*64
$GPMSS,0,0,0.000000,200,*5A
$GPZDA,073701,14,09,2029,00,00*4F
$GPGGA,073701.242,5127.8469,N,00733.5141,E,1,07,1.4,258.2,M,47.5,M,0.0,0000*79
$GPGSA,A,3,18,21,24,06,03,19,16,,,,,,2.4,1.4,1.9*3F
$GPRMC,073701.242,A,5127.8469,N,00733.5141,E,28.61,148.73,140929,,*32
$GPVTG,148.73,T,,M,28.61,N,53.0,K*62
$GPZDA,073702,14,09,2029,00,00*4C
$GPGGA,073702.242,5127.8401,N,00733.5199,E,1,06,2.0,257.8,M,47.5,M,0.0,0000*72
$GPGSA,A,3,18,21,06,03,19,16,,,,,,,3.1,2.0,2.2*32
$GPRMC,073702.242,A,5127.8401,N,00733.5199,E,27.59,152.28,140929,,*3B
$GPVTG,152.28,T,,M,27.59,N,51.1,K*60
$GPZDA,073703,14,09,2029,00,00*4D
$GPGGA,073703.242,5127.8331,N,00733.5251,E,1,05,2.0,257.3,M,47.5,M,0.0,0000*78
$GPGSA,A,3,18,21,06,03,16,,,,,,,,4.5,2.0,4.0*3D
$GPRMC,073703.242,A,5127.8331,N,00733.5251,E,28.23,156.62,140929,,*31
$GPVTG,156.62,T,,M,28.23,N,52.3,K*69
$GPZDA,073704,14,09,2029,00,00*4A
$GPGGA,073704.242,5127.8258,N,00733.5295,E,1,05,2.0,256.8,M,47.5,M,0.0,0000*73
$GPGSA,A,3,18,21,06,03,16,,,,,,,,4.5,2.0,4.0*3D
$GPRMC,073704.242,A,5127.8258,N,00733.5295,E,27.98,159.89,140929,,*35
$GPVTG,159.89,T,,M,27.98,N,51.8,K*64
$GPZDA,073705,14,09,2029,00,00*4B
$GPGGA,073705.242,5127.8184,N,00733.5332,E,1,05,2.0,256.3,M,47.5,M,0.0,0000*77
$GPGSA,A,3,18,21,06,03,16,,,,,,,,4.5,2.0,4.0*3D
$GPGSV,3,1,10,16,66,201,36,21,60,071,38,06,56,283,37,03,43,284,36*74
$GPGSV,3,2,10,18,38,119,40,24,23,055,23,22,21,156,39,19,17,277,23*76
$GPGSV,3,3,10,07,14,325,28,29,05,096,00*75
$GPRMC,073705.242,A,5127.8184,N,00733.5332,E,27.64,163.23,140929,,*30
$GPVTG,163.23,T,,M,27.64,N,51.2,K*64
$GPMSS,0,0,0.000000,200,*5A
$GPZDA,073706,14,09,2029,00,00*48
$GPGGA,073706.242,5127.8111,N,00733.5362,E,1,05,2.0,255.7,M,47.5,M,0.0,0000*7A
$GPGSA,A,3,18,21,06,03,16,,,,,,,,4.5,2.0,4.0*3D
$GPRMC,073706.242,A,5127.8111,N,00733.5362,E,27.01,165.85,140929,,*33
$GPVTG,165.85,T,,M,27.01,N,50.0,K*6E
$GPZDA,073707,14,09,2029,00,00*49
$GPGGA,073707.242,5127.8039,N,00733.5385,E,1,05,2.0,255.0,M,47.5,M,0.0,0000*7E
$GPGSA,A,3,18,21,06,03,16,,,,,,,,4.5,2.0,4.0*3D
$GPRMC,073707.242,A,5127.8039,N,00733.5385,E,25.77,168.64,140929,,*31
$GPVTG,168.64,T,,M,25.77,N,47.7,K*6E
$GPZDA,073708,14,09,2029,00,00*46
$GPGGA,073708.242,5127.7970,N,00733.5403,E,1,05,2.0,254.4,M,47.5,M,0.0,0000*76
$GPGSA,A,3,18,21,06,03,16,,,,,,,,4.5,2.0,4.0*3D
$GPRMC,073708.242,A,5127.7970,N,00733.5403,E,25.06,170.76,140929,,*30
$GPVTG,170.76,T,,M,25.06,N,46.4,K*60
$GPZDA,073709,14,09,2029,00,00*47
$GPGGA,073709.242,5127.7902,N,00733.5418,E,1,05,2.0,253.9,M,47.5,M,0.0,0000*72
$GPGSA,A,3,18,21,06,03,16,,,,,,,,4.5,2.0,4.0*3D
$GPRMC,073709.242,A,5127.7902,N,00733.5418,E,24.70,172.11,140929,,*3D
$GPVTG,172.11,T,,M,24.70,N,45.7,K*63
$GPZDA,073710,14,09,2029,00,00*4F
$GPGGA,073710.241,5127.7834,N,00733.5429,E,1,06,2.0,253.4,M,47.5,M,0.0,0000*71
$GPGSA,A,3,18,21,06,03,19,16,,,,,,,3.1,2.0,2.2*32
$GPGSV,3,1,10,16,66,201,39,21,60,071,39,06,56,283,29,03,43,284,31*72
$GPGSV,3,2,10,18,38,119,39,24,23,055,00,22,21,156,39,19,17,277,28*72
$GPGSV,3,3,10,07,14,325,00,29,05,096,00*7F
$GPRMC,073710.241,A,5127.7834,N,00733.5429,E,24.60,175.17,140929,,*30
$GPVTG,175.17,T,,M,24.60,N,45.6,K*62
$GPMSS,0,0,0.000000,200,*5A
$GPZDA,073711,14,09,2029,00,00*4E
$GPGGA,073711.241,5127.7766,N,00733.5434,E,1,04,2.2,252.9,M,47.5,M,0.0,0000*78
$GPGSA,A,3,18,21,03,16,,,,,,,,,4.6,2.2,4.0*3A
$GPRMC,073711.241,A,5127.7766,N,00733.5434,E,24.58,178.38,140929,,*3E
$GPVTG,178.38,T,,M,24.58,N,45.5,K*6A
$GPZDA,073712,14,09,2029,00,00*4D
$GPGGA,073712.241,5127.7697,N,00733.5434,E,1,03,9.8,252.7,M,47.5,M,0.0,0000*7C
$GPGSA,A,2,18,21,16,,,,,,,,,,22.3,9.8,20.0*3E
$GPRMC,073712.241,A,5127.7697,N,00733.5434,E,24.83,180.84,140929,,*34
$GPVTG,180.84,T,,M,24.83,N,46.0,K*6A
$GPZDA,073713,14,09,2029,00,00*4C
$GPGGA,073713.241,5127.7629,N,00733.5427,E,1,04,2.2,252.7,M,47.5,M,0.0,0000*7C
$GPGSA,A,3,18,21,03,16,,,,,,,,,4.6,2.2,4.0*3A
$GPRMC,073713.241,A,5127.7629,N,00733.5427,E,24.86,184.34,140929,,*38
$GPVTG,184.34,T,,M,24.86,N,46.0,K*60
$GPZDA,073714,14,09,2029,00,00*4B
$GPGGA,073714.241,5127.7563,N,00733.5414,E,1,03,9.8,252.7,M,47.5,M,0.0,0000*70
$GPGSA,A,2,18,21,16,,,,,,,,,,22.3,9.8,20.0*3E
$GPRMC,073714.241,A,5127.7563,N,00733.5414,E,23.48,189.14,140929,,*38
$GPVTG,189.14,T,,M,23.48,N,43.5,K*6A
$GPZDA,073715,14,09,2029,00,00*4A
$GPGGA,073715.241,5127.7500,N,00733.5395,E,1,04,2.4,252.9,M,47.5,M,0.0,0000*74
$GPGSA,A,3,18,21,06,16,,,,,,,,,6.1,2.4,5.6*3B
$GPGSV,3,1,10,16,66,201,37,21,60,071,41,06,56,283,31,03,43,284,27*7D
$GPGSV,3,2,10,18,38,119,36,24,23,055,22,22,21,156,33,19,17,277,24*7B
$GPGSV,3,3,10,07,14,325,00,29,05,096,00*7F
$GPRMC,073715.241,A,5127.7500,N,00733.5395,E,22.82,191.93,140929,,*33
$GPVTG,191.93,T,,M,22.82,N,42.3,K*6C
$GPMSS,0,0,0.000000,200,*5A
$GPZDA,073716,14,09,2029,00,00*49
$GPGGA,073716.241,5127.7438,N,00733.5372,E,1,04,4.0,252.7,M,47.5,M,0.0,0000*78
$GPGSA,A,3,21,06,03,16,,,,,,,,,12.8,4.0,12.2*3D
$GPRMC,073716.241,A,5127.7438,N,00733.5372,E,23.02,193.48,140929,,*3E
$GPVTG,193.48,T,,M,23.02,N,42.6,K*64
$GPZDA,073717,14,09,2029,00,00*48
$GPGGA,073717.241,5127.7378,N,00733.5344,E,1,04,4.0,252.3,M,47.5,M,0.0,0000*7B
$GPGSA,A,3,21,06,03,16,,,,,,,,,12.8,4.0,12.2*3D
$GPRMC,073717.241,A,5127.7378,N,00733.5344,E,22.58,196.41,140929,,*3B
$GPVTG,196.41,T,,M,22.58,N,41.8,K*6B
$GPZDA,073718,14,09,2029,00,00*47
$GPGGA,073718.241,5127.7321,N,00733.5310,E,1,05,2.0,251.6,M,47.5,M,0.0,0000*78
$GPGSA,A,3,18,21,06,03,16,,,,,,,,4.5,2.0,4.0*3D
$GPRMC,073718.241,A,5127.7321,N,00733.5310,E,21.61,198.80,140929,,*33
$GPVTG,198.80,T,,M,21.61,N,40.0,K*68
$GPZDA,073719,14,09,2029,00,00*46
$GPGGA,073719.241,5127.7266,N,00733.5277,E,1,04,3.8,251.1,M,47.5,M,0.0,0000*74
$GPGSA,A,3,21,06,03,16,,,,,,,,,12.8,3.8,12.2*32
$GPRMC,073719.241,A,5127.7266,N,00733.5277,E,21.25,199.81,140929,,*30
$GPVTG,199.81,T,,M,21.25,N,39.4,K*62
$GPZDA,073720,14,09,2029,00,00*4C
$GPGGA,073720.241,5127.7211,N,00733.5242,E,1,04,3.8,250.5,M,47.5,M,0.0,0000*7D
$GPGSA,A,3,21,06,03,16,,,,,,,,,12.8,3.8,12.2*32
$GPGSV,3,1,10,16,66,201,38,21,60,071,36,06,56,284,35,03,43,284,28*7E
$GPGSV,3,2,10,18,38,119,26,24,22,055,23,22,21,156,24,19,17,277,00*7A
$GPGSV,3,3,10,07,14,325,00,29,05,096,00*7F
$GPRMC,073720.241,A,5127.7211,N,00733.5242,E,21.35,200.92,140929,,*3C
$GPVTG,200.92,T,,M,21.35,N,39.5,K*63
$GPMSS,0,0,0.000000,200,*5A
$GPZDA,073721,14,09,2029,00,00*4D
$GPGGA,073721.241,5127.7156,N,00733.5204,E,1,04,3.8,249.8,M,47.5,M,0.0,0000*7B
$GPGSA,A,3,21,06,03,16,,,,,,,,,12.8,3.8,12.2*32
$GPRMC,073721.241,A,5127.7156,N,00733.5204,E,22.16,202.26,140929,,*30
$GPVTG,202.26,T,,M,22.16,N,41.0,K*66
$GPZDA,073722,14,09,2029,00,00*4E
$GPGGA,073722.241,5127.7101,N,00733.5165,E,1,04,3.8,249.1,M,47.5,M,0.0,0000*77
$GPGSA,A,3,21,06,03,16,,,,,,,,,12.8,3.8,12.2*32
$GPRMC,073722.241,A,5127.7101,N,00733.5165,E,21.60,202.16,140929,,*34
$GPVTG,202.16,T,,M,21.60,N,40.0,K*66
$GPZDA,073723,14,09,2029,00,00*4F
$GPGGA,073723.241,5127.7048,N,00733.5123,E,1,04,3.8,248.3,M,47.5,M,0.0,0000*7B
$GPGSA,A,3,21,06,03,16,,,,,,,,,12.8,3.8,12.2*32
$GPRMC,073723.241,A,5127.7048,N,00733.5123,E,21.19,206.01,140929,,*37
$GPVTG,206.01,T,,M,21.19,N,39.2,K*66
$GPZDA,073724,14,09,2029,00,00*48
$GPGGA,073724.241,5127.6998,N,00733.5077,E,1,04,2.4,247.5,M,47.5,M,0.0,0000*7D
$GPGSA,A,3,18,21,06,16,,,,,,,,,6.1,2.4,5.6*3B
$GPRMC,073724.241,A,5127.6998,N,00733.5077,E,20.98,206.76,140929,,*3D
$GPVTG,206.76,T,,M,20.98,N,38.9,K*64
$GPZDA,073725,14,09,2029,00,00*49
$GPGGA,073725.241,5127.6947,N,00733.5034,E,1,04,3.8,247.0,M,47.5,M,0.0,0000*71
$GPGSA,A,3,21,06,03,16,,,,,,,,,12.8,3.8,12.2*32
$GPGSV,3,1,10,16,66,201,40,21,60,071,36,06,56,284,35,03,43,284,28*71
$GPGSV,3,2,10,18,38,119,26,24,22,055,00,22,21,156,26,19,17,277,00*79
$GPGSV,3,3,10,07,14,325,00,29,05,096,00*7F
$GPRMC,073725.241,A,5127.6947,N,00733.5034,E,20.93,205.94,140929,,*3D
$GPVTG,205.94,T,,M,20.93,N,38.8,K*61
$GPMSS,0,0,0.000000,200,*5A
$GPZDA,073726,14,09,2029,00,00*4A
$GPGGA,073726.241,5127.6896,N,00733.4994,E,1,03,4.0,246.6,M,47.5,M,0.0,0000*72
$GPGSA,A,2,21,06,16,,,,,,,,,,20.4,4.0,20.0*31
$GPRMC,073726.241,A,5127.6896,N,00733.4994,E,20.59,203.09,140929,,*35
$GPVTG,203.09,T,,M,20.59,N,38.1,K*6C
$GPZDA,073727,14,09,2029,00,00*4B
$GPGGA,073727.240,5127.6844,N,00733.4958,E,1,04,3.8,246.2,M,47.5,M,0.0,0000*71
$GPGSA,A,3,21,06,03,16,,,,,,,,,12.8,3.8,12.2*32
$GPRMC,073727.240,A,5127.6844,N,00733.4958,E,20.21,201.11,140929,,*3E
$GPVTG,201.11,T,,M,20.21,N,37.4,K*62
$GPZDA,073728,14,09,2029,00,00*44
$GPGGA,073728.240,5127.6794,N,00733.4925,E,1,03,4.0,245.9,M,47.5,M,0.0,0000*76
$GPGSA,A,2,21,06,16,,,,,,,,,,20.4,4.0,20.0*31
$GPRMC,073728.240,A,5127.6794,N,00733.4925,E,19.58,199.95,140929,,*33
$GPVTG,199.95,T,,M,19.58,N,36.3,K*6E
$GPZDA,073729,14,09,2029,00,00*45
$GPGGA,073729.240,5127.6745,N,00733.4895,E,1,03,6.6,245.7,M,47.5,M,0.0,0000*7B
$GPGSA,A,2,21,03,16,,,,,,,,,,21.1,6.6,20.0*34
$GPRMC,073729.240,A,5127.6745,N,00733.4895,E,18.88,199.91,140929,,*3C
$GPVTG,199.91,T,,M,18.88,N,35.0,K*66
$GPZDA,073730,14,09,2029,00,00*4D
$GPGGA,073730.240,5127.6696,N,00733.4868,E,1,03,6.6,245.6,M,47.5,M,0.0,0000*7F
$GPGSA,A,2,21,03,16,,,,,,,,,,21.1,6.6,20.0*34
$GPGSV,3,1,10,16,66,201,43,21,60,071,40,06,56,284,36,03,43,284,28*70
$GPGSV,3,2,10,18,38,119,30,24,22,055,23,22,21,156,34,19,17,277,00*7C
$GPGSV,3,3,10,07,14,325,00,29,05,096,00*7F
$GPRMC,073730.240,A,5127.6696,N,00733.4868,E,18.78,197.48,140929,,*3C
$GPVTG,197.48,T,,M,18.78,N,34.8,K*6A
$GPMSS,0,0,0.000000,200,*5A
$GPZDA,073731,14,09,2029,00,00*4C
$GPGGA,073731.240,5127.6642,N,00733.4853,E,1,04,2.4,245.0,M,47.5,M,0.0,0000*78
$GPGSA,A,3,18,21,06,16,,,,,,,,,6.1,2.4,5.6*3B
$GPRMC,073731.240,A,5127.6642,N,00733.4853,E,19.92,189.42,140929,,*3C
$GPVTG,189.42,T,,M,19.92,N,36.9,K*69
$GPZDA,073732,14,09,2029,00,00*4F
$GPGGA,073732.240,5127.6588,N,00733.4843,E,1,05,2.0,244.0,M,47.5,M,0.0,0000*7B
$GPGSA,A,3,18,21,06,03,16,,,,,,,,4.6,2.0,4.0*3E
$GPRMC,073732.240,A,5127.6588,N,00733.4843,E,19.49,186.02,140929,,*36
$GPVTG,186.02,T,,M,19.49,N,36.1,K*6C
$GPZDA,073733,14,09,2029,00,00*4E
$GPGGA,073733.240,5127.6536,N,00733.4836,E,1,05,1.8,243.2,M,47.5,M,0.0,0000*73
$GPGSA,A,3,18,21,24,06,16,,,,,,,,4.2,1.8,3.7*34
$GPRMC,073733.240,A,5127.6536,N,00733.4836,E,18.55,184.06,140929,,*3A
